id,lat,lng,muni,muni_code,arrond,address,num_adr_inf,num_adr_inf_2,num_adr_sup,num_adr_sup_2,way_type,way_link,street_name,cardinal_pt,apt_num,apt_num_1,apt_num_2,mat18,cubf,file_num,nghbr_unit,owner_date,owner_type,owner_status,lot_lin_dim,lot_area,max_floors,const_yr,const_yr_real,floor_area,phys_link,const_type,num_dwelling,num_rental,num_non_res,apprais_date,lot_value,building_value,value,prev_value,associated,date_added
35010899257190200000000,46.8684105461,-72.3887941695,Lac-aux-Sables,35010,,rue SAINTE-MARIE,,,,,RU,,SAINTE-MARIE,,,,,899257190200000000,7441,3139,1109,2005-10-18,moral,landowner,5.19,514.80,1,1970,R,,,,,,,2015-07-01,14300,65100,79400,79400,,2023-08-07
69037669832901600000000,45.1226522136,-73.9885776273,Ormstown,69037,,7 rue GEORGES,7,,,,RU,,GEORGES,,,,,669832901600000000,6812,416532,1316,1998-07-01,moral,landowner,77.96,11238.00,2,1912,R,2050.8,single-detached,,,,1,2020-07-01,127700,895400,1023100,996600,,2023-08-07
20025619425739400000000,46.8895844471,-71.0709784984,Saint-Pierre-de-l'Île-d'Orléans,20025,,1462 chemin ROYAL,1462,,,,CH,,ROYAL,,,,,619425739400000000,6812,41144,4002,1958-10-23,moral,landowner,188.47,8666.90,1,1953,R,1496.6,single-detached,,,,,2020-07-01,302800,1823300,2126100,1979000,,2023-08-07
62080925084327700000000,46.4938491104,-73.6559072939,Saint-Zénon,62080,,CAMPING  BOISVERT,,,,,,,CAMPING  BOISVERT,,,,,925084327700000000,7491,,7499,2013-01-01,moral,landowner,,10786.00,,,,,,,,,,2020-07-01,16800,,16800,12900,,2023-08-07
66102743387750130000000,45.4447804153,-73.8803860165,Kirkland,66102,,18180 boulevard ELKAS,18180,,,,BO,,ELKAS,,,,,743387750130000000,7611,10-F04903000,0229,2000-01-01,moral,landowner,,118365.20,,,,,,,,,,2018-07-01,13612000,7366000,20978000,19957100,,2023-08-07
09048689228584900000000,48.6730467357,-67.9962793985,Métis-sur-Mer,09048,REC01,370 rue BEACH,370,,,,RU,,BEACH,,,,,689228584900000000,7219,3357226,1105,1995-01-01,moral,landowner,52.93,2082.60,1,1899,R,196.7,single-detached,single-storey,,,1,2020-07-01,74900,94800,169700,181500,,2023-08-07
67050832285817400000000,45.3438112972,-73.7674554934,Châteauguay,67050,,255 boulevard BRISEBOIS,255,,,,BO,,BRISEBOIS,,,,,832285817400000000,7451,2840246,7016,2010-10-13,moral,lessor,110.21,44378.60,1,1973,R,,,,,,1,2020-07-01,4015100,8345500,12360600,9943600,,2023-08-07
78015451772379400000000,46.1928433763,-74.2651948546,Lantier,78015,,chemin des MERISIERS,,,,,CH,M,MERISIERS,,,,,451772379400000000,7431,176329,2021,2021-03-04,physical,landowner,,2259.30,,,,,,,,,,2020-07-01,100,,100,100,,2023-08-07
67045852235990600000000,45.3422351209,-73.7475564647,Mercier,67045,,348 rue EDOUARD-LABERGE,348,,,,RU,,EDOUARD-LABERGE,,,,,852235990600000000,7312,,0250,1998-12-16,moral,landowner,147.29,38842.00,,,,,,,,,,2020-07-01,1262400,,1262400,971400,,2023-08-07
37245906421726700000000,46.6116649615,-72.3841217335,Saint-Stanislas,37245,,1365 1375 rue PRINCIPALE,1365,,1375,,RU,,PRINCIPALE,,,,,906421726700000000,7424,417529,V110,1997-09-15,moral,landowner,11.82,3629.20,,1951,R,,,,,,4,2020-07-01,41500,116100,157600,126400,,2023-08-07
67035992764193600000000,45.3868311364,-73.5660524322,Saint-Constant,67035,,260 route 132,260,,,,RO,,132,,,,,992764193600000000,7451,895919,5100,1975-06-10,moral,landowner,170.03,24141.00,1,1976,R,2963.2,single-detached,,1,,2,2018-07-01,3049200,2042500,5091700,4273400,,2023-08-07
62080795222617000000000,46.5096026008,-73.8327930727,Saint-Zénon,62080,,CAMPING LAC CLAIR,,,,,,,CAMPING LAC CLAIR,,,,,795222617000000000,7491,,7492,2013-01-01,moral,landowner,,141460.00,,,,,,,,,,2020-07-01,163300,,163300,152500,,2023-08-07
76025416649390300000000,45.7393123482,-74.3140513726,Gore,76025,,chemin de DUNANY,,,,,CH,J,DUNANY,,,,,416649390300000000,7611,,7610,2020-06-11,moral,landowner,10.67,8395.80,,,,,,,,,,2015-07-01,100,,100,,,2023-08-07
46078711728901100000000,45.2971180453,-72.6521753624,Bromont,46078,,chemin des DILIGENCES,,,,,CH,M,DILIGENCES,,,,,711728901100000000,7611,,2206,2017-10-30,moral,landowner,100.98,3034.10,,,,,,,,,,2018-07-01,100,0,100,,,2023-08-07
42088874941989700000000,45.5728270505,-72.0029948991,Windsor,42088,,101 rue AMBROISE-DEARDEN,101,,,,RU,,AMBROISE-DEARDEN,,,,,874941989700000000,6812,,0101,1998-07-01,moral,landowner,113.51,25431.60,2,1955,R,3724.2,single-detached,,,,1,2019-07-01,569200,3627500,4196700,4042700,,2023-08-07
45095961368341600000000,45.2583308672,-72.3298815553,Bolton-Est,45095,,chemin de la MINE,,,,,CH,L,MINE,,,,,961368341600000000,7431,,9999,2020-09-18,moral,landowner,60.78,2070.70,,,,,,,,,,2019-07-01,100,0,100,100,,2023-08-07
94250419332821400000000,48.6740657854,-71.3612455539,Bégin,94250,,rue Parent Sud,,,,,RU,,Parent Sud,,,,,419332821400000000,7611,,1910,1976-02-11,moral,landowner,142.15,8958.30,,,,,,,,,,2019-07-01,22000,,22000,22000,,2023-08-07
66023014973466170000000,45.5841566720,-73.5391314829,Montréal,66023,REM22,3100 rue ARCAND,3100,,,,RU,,ARCAND,,,,,014973466170000000,6813,30-F36083900,2742,2020-06-15,moral,landowner,91.44,4465.60,,2000,R,,,,,,11,2018-07-01,3125900,2057900,5183800,4474900,,2023-08-07
66023046094346100000000,45.6840168310,-73.4983450716,Montréal,66023,REM33,15150 rue SHERBROOKE Est,15150,,,,RU,,SHERBROOKE,E,,,,046094346100000000,6815,30-F80218195,3812,2020-06-15,moral,landowner,81.10,20125.60,1,1978,R,3125.5,single-detached,,,,1,2018-07-01,2032700,5808900,7841600,438800,,2023-08-07
93070089107391800010000,48.6512954417,-71.8151919050,Saint-Henri-de-Taillon,93070,,110 rue MARINA,110,,,,RU,,MARINA,,,,,089107391800010000,7441,52271,1530,1988-12-12,moral,landowner,37.15,530071.60,1,,,,,,,,2,2019-07-01,,206300,206300,170900,,2023-08-07
43027872613863400000000,45.3671159430,-72.0018950730,Sherbrooke,43027,REB01,rue GUY-PIGEON,,,,,RU,,GUY-PIGEON,,,,,872613863400000000,7611,,9998,2010-07-16,moral,landowner,22.25,8521.40,,,,,,,,,,2020-07-01,100,0,100,100,,2023-08-07
43027982632764200000000,45.3680208756,-71.8585459915,Sherbrooke,43027,REB03,16 rue CHURCH,16,,,,RU,,CHURCH,,,,,982632764200000000,6812,,318A,1998-11-23,moral,lessor,78.44,7585.70,2,1962,R,2549.3,single-detached,,,,1,2020-07-01,343400,1288600,1632000,1598500,,2023-08-07
45072081559396600010000,45.2759154127,-72.1777624497,Magog,45072,,50 chemin de la PLAGE-DES-CANTONS,50,,,,CH,L,PLAGE-DES-CANTONS,,,,,081559396600010000,7219,,4053,2019-04-18,moral,condo owner,15.73,12721.20,1,2001,R,3115.2,single-detached,,,,1,2020-07-01,244700,486100,730800,613400,,2023-08-07
99005693357849700010000,49.0413829546,-76.9811357415,Lebel-sur-Quévillon,99005,,1019 boulevard QUEVILLON,1019,,,,BO,,QUEVILLON,,,,,693357849700010000,7412,,0016,1981-01-01,moral,landowner,1221.80,333220.20,1,1980,R,,single-detached,staggered-level,,,1,2018-07-01,36500,6000,42500,42500,,2023-08-07
62007100909433700000000,46.1266118489,-73.4318047808,Saint-Félix-de-Valois,62007,,201 rue des SOURCES,201,,,,RU,M,SOURCES,,,,,100909433700000000,7491,,7495,2012-09-28,moral,landowner,116.17,205716.90,1,1969,R,68.5,single-detached,single-storey,,,1,2019-07-01,202400,193100,395500,383900,,2023-08-07
96005187583372600000000,49.4156703494,-67.3065569616,Baie-Trinité,96005,,1 rue POULIN,1,,,,RU,,POULIN,,,,,187583372600000000,7433,3201424,1232,1995-09-01,moral,landowner,163.01,7057.20,1,1956,R,64.9,single-detached,single-storey,,,1,2017-07-01,37400,25400,62800,62800,,2023-08-07
51065355366004700000000,46.5217754366,-73.0985654243,Saint-Alexis-des-Monts,51065,,2010 rang du LAC-CACHE,2010,,,,RA,N,LAC-CACHE,,,,,355366004700000000,7491,,8521,2020-04-22,moral,landowner,42.90,4165.80,2,,,,,,,,1,2016-07-01,109900,239500,349400,349400,,2023-08-07
79030184061098400000000,46.3919986141,-75.0172085949,Nominingue,79030,,2100 chemin du TOUR-DU-LAC,2100,,,,CH,N,TOUR-DU-LAC,,,,,184061098400000000,7411,130250,1012,1970-09-30,moral,landowner,1447.37,604930.90,1,1972,R,,,,,19,1,2019-07-01,597700,2351100,2948800,3380600,,2023-08-07
38055145474510700000000,46.5203359317,-72.0669583657,Parisville,38055,,1170 rue du TERRAIN-DE-JEU,1170,,,,RU,N,TERRAIN-DE-JEU,,,,,145474510700000000,7219,,1005,1992-12-28,moral,landowner,33.22,1103.80,1,1984,R,398.0,single-detached,,,,1,2020-07-01,26500,315300,341800,319000,,2023-08-07
02005257586197800010003,48.5193464297,-64.2154436466,Percé,02005,,199 route 132 Ouest,199,,,,RO,,132,O,,,,257586197800010003,7444,84060201,6500,2019-05-01,moral,tenant of tax-exempt building,,438.00,1,2018,R,340.3,single-detached,,,,1,2020-07-01,9200,484700,493900,379400,,2023-08-07
NR790359656005100000000,46.8526114571,-74.7310719437,Antoine-Labelle,NR790,,LAC IRVINE,,,,,,,LAC IRVINE,,,,,359656005100000000,7491,233414,1113,2020-01-01,moral,landowner,,7114.00,,,,,,,,,,2018-07-01,12600,,12600,0,,2023-08-07
65005784806916130000000,45.5774097476,-73.8418819877,Laval,65005,,rue JEAN-BART,,,,,RU,,JEAN-BART,,,,,784806916130000000,7611,417263,2321,1987-05-13,moral,landowner,30.50,16928.60,,,,,,,,,,2020-07-01,411400,0,411400,439900,,2023-08-07
20020669122891900000000,46.8593795006,-71.0050780213,Saint-Laurent-de-l'Île-d'Orléans,20020,,100 chemin du QUAI,100,,,,CH,N,QUAI,,,,,669122891900000000,7441,40264,4000,1987-01-01,moral,landowner,,8870.60,1,1984,R,184.0,single-detached,,,,1,2020-07-01,459200,457600,916800,891400,,2023-08-07
26055555190892100000000,46.4970884413,-71.1358437874,Saint-Bernard,26055,,1492 rue du Couvent,1492,,,,RU,N,Couvent,,,,,555190892100000000,6812,,7000,1996-05-14,moral,landowner,,6519.30,1,,,,,,,,3,2018-07-01,268400,1571600,1840000,,,2023-08-07
02028905651759100000000,48.3406447977,-64.6894681035,Chandler,02028,,200 rue COMMERCIALE Ouest,200,,,,RU,,COMMERCIALE,O,,,,905651759100000000,7412,146096,1703,2005-10-25,moral,landowner,159.16,537808.00,1,1985,R,,,,,,1,2020-07-01,582600,1412400,1995000,1900600,,2023-08-07
77022569442107100000000,45.9870055427,-74.1243978403,Sainte-Adèle,77022,,1466 rue des COPAINS,1466,,,,RU,M,COPAINS,,,,,569442107100000000,7412,799920,9504,2001-12-18,moral,landowner,207.01,188284.90,1,1961,R,433.9,single-detached,,,,1,2019-07-01,593100,383500,976600,920000,,2023-08-07
46078711643616500000000,45.2839991574,-72.6510417634,Bromont,46078,,rue de SHANNON,,,,,RU,J,SHANNON,,,,,711643616500000000,7611,,9999,2018-03-30,moral,landowner,,931327.70,,,,,,,,,,2018-07-01,100,0,100,,,2023-08-07
45055891667245700000000,45.2813864891,-71.9682906246,Hatley,45055,,3245 chemin de CAPELTON,3245,,,,CH,J,CAPELTON,,,,,891667245700000000,7419,,5009,1983-01-01,moral,landowner,48.16,2220.40,2,1957,R,799.5,single-detached,,,,1,2019-07-01,76100,171000,247100,245400,,2023-08-07
97007817099757500000000,50.2702962868,-66.4172578315,Sept-Îles,97007,,10 rue des HIRONDELLES,10,,,,RU,M,HIRONDELLES,,,,,817099757500000000,6812,163930,7001,1998-07-01,moral,building owner on public land,175.56,32149.10,1,1981,R,4521.0,single-detached,,,,1,2020-07-01,430800,5084800,5515600,5441500,,2023-08-07
83032371136712100000000,46.1436597394,-76.0785011154,Gracefield,83032,,236 7 chemin de BLUE SEA,236,7,,,CH,J,BLUE SEA,,,,,371136712100000000,7493,77563,0606,2012-07-30,moral,landowner,147.43,60786.00,1,1996,R,71.5,single-detached,single-storey,,,1,2020-07-01,275300,134100,409400,349800,,2023-08-07
56105382072309400000000,45.3223343534,-73.0659819695,Sainte-Brigide-d'Iberville,56105,,510 9e Rang,510,,,,,,9e Rang,,,,,382072309400000000,7219,226,0104,1981-01-01,moral,landowner,493.18,48680.50,1,1959,R,314.7,single-detached,,,,2,2020-07-01,762600,383300,1145900,1143900,,2023-08-07
59020105916106400000000,45.6768519056,-73.4318058388,Varennes,59020,,rue DE MARTIGNY,,,,,RU,,DE MARTIGNY,,,,,105916106400000000,7611,907290,1600,1980-11-07,moral,landowner,,993.10,,,,,,,,,,2020-07-01,177300,0,177300,167500,,2023-08-07
50057791315457500000000,46.1578985202,-72.5374464095,Sainte-Monique,50057,,247 249 rue PRINCIPALE,247,,249,,RU,,PRINCIPALE,,,,,791315457500000000,7239,4425,5505,2003-08-26,moral,landowner,43.93,2397.30,1,,,319.8,single-detached,,,,2,2015-07-01,55800,376900,432700,432700,,2023-08-07
57035294924658100000000,45.5850062515,-73.1866707833,Mont-Saint-Hilaire,57035,,165 rue FORBIN-JANSON,165,,,,RU,,FORBIN-JANSON,,,,,294924658100000000,6812,1094993,7300,2020-03-11,moral,landowner,90.60,14489.60,1,2019,R,2486.7,single-detached,,,,1,2018-07-01,1289000,11071600,12360600,11883300,,2023-08-07
33080025964788700000000,46.5672664337,-71.8321447769,Saint-Édouard-de-Lotbinière,33080,,105 rue de l' Ecole,105,,,,RU,K,Ecole,,,,,025964788700000000,6812,,0703,1961-10-31,moral,landowner,114.38,12720.30,2,1961,R,1109.9,single-detached,,,,1,2020-07-01,110400,622600,733000,732300,,2023-08-07
34017147865476500000000,46.7405725870,-71.6797756285,Pont-Rouge,34017,,rue du ROSIER,,,,,RU,N,ROSIER,,,,,147865476500000000,7611,,1077,2018-07-20,moral,landowner,9.11,252.90,,,,,,,,,,2018-07-01,100,0,100,,,2023-08-07
62037909954574200000000,46.0346338174,-73.6840009527,Rawdon,62037,,3264 rue POIRIER,3264,,,,RU,,POIRIER,,,,,909954574200000000,7491,,7350,1985-01-01,physical,landowner,210.46,305941.60,1,1975,R,,,,,,1,2019-07-01,147000,63000,210000,195000,,2023-08-07
78015461147794600000000,46.1429954621,-74.2549034276,Lantier,78015,,chemin du LAC-CARDIN,,,,,CH,N,LAC-CARDIN,,,,,461147794600000000,7413,177069,1002,2007-08-29,moral,landowner,60.96,3716.10,,,,,,,,,,2020-07-01,20200,15700,35900,29400,,2023-08-07
62080915192882400000000,46.5005542200,-73.6669226106,Saint-Zénon,62080,,CAMPING LAFRENIERE #1,,,,,,,CAMPING LAFRENIERE #1,,,,,915192882400000000,7491,,7495,2013-01-01,moral,landowner,,9938.00,,,,,,,,,,2020-07-01,15500,,15500,11900,,2023-08-07
23027438925356420000000,46.8429466148,-71.3071047028,Québec,23027,REQ02,1640 1650 boulevard La Morille,1640,,1650,,BO,,La Morille,,,,,438925356420000000,7424,F155906,2212,1995-09-26,moral,landowner,,23315.10,2,,,,,,,,3,2020-07-01,4515000,9965000,14480000,13610000,,2023-08-07
67020032853795000000000,45.3951134327,-73.5155777556,Candiac,67020,,rue d' AMBRE,,,,,RU,H,AMBRE,,,,,032853795000000000,7611,,9999,2021-01-08,moral,landowner,,1527.20,,,,,,,,,,2020-07-01,100,0,100,100,,2023-08-07
93042207908942300000000,48.5517571753,-71.6476970548,Alma,93042,,rue MOREAU,,,,,RU,,MOREAU,,,,,207908942300000000,7421,,2100,1983-01-01,moral,landowner,331.87,10566.80,,2014,R,,,,,,,2020-07-01,30800,145200,176000,173500,,2023-08-07
78015461727352800000000,46.1968338789,-74.2587475491,Lantier,78015,,croissant de la BAIE,,,,,CR,L,BAIE,,,,,461727352800000000,7431,177568,2021,2021-05-31,physical,landowner,12.02,1432.40,,,,,,,,,,2020-07-01,100,,100,100,,2023-08-07
57005223337895108490000,45.4434693030,-73.2751584163,Chambly,57005,,1849 boulevard DE PERIGNY,1849,,,,BO,,DE PERIGNY,,,,,223337895108490000,7399,,0212,2018-03-02,moral,condo owner,9.15,900.40,1,1989,R,295.4,row house,,,,1,2018-07-01,175600,259700,435300,399000,,2023-08-07
49020896442902300000000,45.7126427800,-72.4122198063,Lefebvre,49020,,194 10E RANG OUEST,194,,,,,,10E RANG OUEST,,,,,896442902300000000,6812,207847,0107,1995-02-22,moral,landowner,138.68,10860.10,1,,,,,,,,2,2019-07-01,45500,407100,452600,423800,,2023-08-07
78102201601979000338888,46.1802065607,-74.5971389641,Mont-Tremblant,78102,,chemin de l' ALBATROS,,,,,CH,K,ALBATROS,,,,,201601979000338888,7433,359757,0052,2015-07-30,moral,condo owner,,,,,,,,,,,,2018-07-01,0,20600,20600,,,2023-08-07
68020910134107500000000,45.1531204579,-73.6715649925,Sainte-Clotilde,68020,,rue des CEDRES,,,,,RU,M,CEDRES,,,,,910134107500000000,7413,786850,7300,1998-09-03,moral,landowner,60.96,2558.30,,1990,R,,,,,,,2019-07-01,62600,15500,78100,64300,,2023-08-07
91025967713001200000000,48.5264055111,-72.2682846888,Roberval,91025,,971 1019 route de l' AEROPORT,971,,1019,,RO,K,AEROPORT,,,,,967713001200000000,7491,,5220,2002-01-01,moral,landowner,,361595.90,1,,,,,,,,1,2018-07-01,305800,1469800,1775600,,,2023-08-07
21025751253314600000000,47.0499908108,-70.8847273747,Beaupré,21025,,20 24 rue de FATIMA Est,20,,24,,RU,J,FATIMA,E,,,,751253314600000000,7219,3042327,7002,1992-06-01,moral,landowner,7.53,7439.20,2,1931,E,1914.6,single-detached,,,,1,2020-07-01,409200,994700,1403900,1162500,,2023-08-07
91010956003153600000000,48.3720668079,-71.9834767974,Saint-André-du-Lac-Saint-Jean,91010,,100 chemin du TROU DE LA FEE,100,,,,CH,N,TROU DE LA FEE,,,,,956003153600000000,7424,,7010,2015-12-03,moral,landowner,,1771103.20,2,,,,,,,,1,2018-07-01,225800,1574600,1800400,,,2023-08-07
86042324452946600000000,48.2365784068,-79.1271814337,Rouyn-Noranda,86042,,avenue des TOURTERELLES,,,,,AV,M,TOURTERELLES,,,,,324452946600000000,7611,,B171,2019-01-01,moral,landowner,20.12,736.10,,,,,,,,,,2020-07-01,58900,,58900,45600,,2023-08-07
42088884932535000000000,45.5735853462,-71.9918825302,Windsor,42088,,250 254 rue GEORGES-GUILBAULT,250,,254,,RU,,GEORGES-GUILBAULT,,,,,884932535000000000,7451,,0600,1952-11-02,moral,landowner,498.47,77294.10,2,,,,,,,,3,2019-07-01,414600,2851000,3265600,3079600,,2023-08-07
18015316832427800000000,46.6536195570,-70.1532420184,Saint-Fabien-de-Panet,18015,,44 rue Principale Ouest,44,,,,RU,,Principale,O,,,,316832427800000000,7422,326,1801,1992-01-01,moral,landowner,94.28,165499.80,1,1966,R,91.0,single-detached,,,,1,2019-07-01,51600,321800,373400,354800,,2023-08-07
56035220394999701050000,45.1712080475,-73.2684717664,Saint-Paul-de-l'Île-aux-Noix,56035,,rue PRINCIPALE,,,,,RU,,PRINCIPALE,,,,,220394999701050000,7491,730,0202,2010-05-15,physical,landowner,,,1,,,2.6,single-detached,,,,,2019-07-01,0,2300,2300,2200,,2023-08-07
12005140665821800000000,47.8964969614,-69.0254607980,Saint-Cyprien,12005,,101 101 B rue COLLIN,101,,101,B,RU,,COLLIN,,,,,140665821800000000,7222,,0720,1981-06-26,moral,landowner,79.30,427665.20,1,,,,,,,,2,2017-07-01,265600,3420700,3686300,3686300,,2023-08-07
23072317884239240000000,46.7421424805,-71.4551360716,Saint-Augustin-de-Desmaures,23072,,130 rue Jean-Juneau,130,,,,RU,,Jean-Juneau,,,,,317884239240000000,6813,F109764,8130,2020-06-15,moral,landowner,,25248.40,2,,,,,,,,1,2020-07-01,3260000,5930000,9190000,8735000,,2023-08-07
21010771959406100000000,47.1185077415,-70.8592879676,Saint-Ferréol-les-Neiges,21010,,3455 avenue Royale,3455,,,,AV,,Royale,,,,,771959406100000000,6812,1874,0700,1999-07-12,moral,landowner,16.88,6711.80,1,1953,R,656.4,single-detached,,,,1,2018-07-01,91400,2235000,2326400,2232900,,2023-08-07
94250419252605800000000,48.6659776527,-71.3585179693,Bégin,94250,,175 rue Parent Sud,175,,,,RU,,Parent Sud,,,,,419252605800000000,7491,,7140,1995-08-29,moral,landowner,,566817.80,1,,,,,,,,1,2019-07-01,31700,110000,141700,129300,,2023-08-07
16013025616691500000000,47.4483614799,-70.5371938654,Baie-Saint-Paul,16013,,40 chemin de l' EQUERRE,40,,,,CH,K,EQUERRE,,,,,025616691500000000,7412,8544,0601,2019-06-05,physical,landowner,329.01,781404.90,1,,,238.0,single-detached,attic,,,1,2020-07-01,253000,160000,413000,394400,,2023-08-07
68050991015224600000000,45.2348577745,-73.5723123687,Saint-Michel,68050,,430 place SAINT-MICHEL,430,,,,PL,,SAINT-MICHEL,,,,,991015224600000000,6812,784962,7000,2000-09-26,moral,landowner,55.14,6490.30,2,1962,R,2216.8,single-detached,,,,1,2019-07-01,494400,1284500,1778900,1775700,,2023-08-07
68030120528838600000000,45.1929212456,-73.4047597821,Napierville,68030,,rue SAINT-LOUIS,,,,,RU,,SAINT-LOUIS,,,,,120528838600000000,7229,3044526,7300,2000-10-05,moral,landowner,,3763.90,,,,,,,,,,2020-07-01,222100,30500,252600,234700,,2023-08-07
18015316886050800000000,46.6565307094,-70.1471589623,Saint-Fabien-de-Panet,18015,,185 rue Bilodeau,185,,,,RU,,Bilodeau,,,,,316886050800000000,6812,462,1700,2001-01-26,moral,landowner,60.96,4050.30,1,1953,R,776.6,single-detached,,,,1,2019-07-01,6100,1000900,1007000,964200,,2023-08-07
65005824761025850010004,45.5640386635,-73.7844195782,Laval,65005,,4355 desserte LAVAL OUEST (A-440),4355,,,,DE,,LAVAL OUEST (A-440),,,,,824761025850010004,7451,609070,4002,2019-10-01,moral,tenant of tax-exempt building,,,,2009,R,,single-detached,,,,1,2020-07-01,0,158400,158400,144000,,2023-08-07
23027438915485210000000,46.8427138552,-71.3082618996,Québec,23027,REQ02,1680 boulevard La Morille,1680,,,,BO,,La Morille,,,,,438915485210000000,6812,F340338,2212,2020-06-15,moral,landowner,,11046.20,3,,,,,,,,1,2020-07-01,2140000,10035000,12175000,11490000,,2023-08-07
06020893577852300000000,48.1546541172,-66.3576129924,Nouvelle,06020,,492 route 132 OUEST,492,,,,RO,,132 OUEST,,,,,893577852300000000,7424,,1008,1901-01-01,moral,landowner,58.22,3818.10,1,1962,R,376.0,single-detached,,,,1,2020-07-01,14800,146000,160800,167600,,2023-08-07
78015451761636300000000,46.1916373507,-74.2661449204,Lantier,78015,,chemin des MERISIERS,,,,,CH,M,MERISIERS,,,,,451761636300000000,7611,176296,2021,2008-03-07,moral,landowner,31.70,5547.60,,,,,,,,,,2020-07-01,100,,100,100,,2023-08-07
92055742969623900000000,49.0037364965,-72.5450581471,Girardville,92055,,604 avenue de la FABRIQUE,604,,,,AV,L,FABRIQUE,,,,,742969623900000000,6812,,5000,1998-07-01,moral,landowner,137.16,13168.80,2,,,,,,,,1,2019-07-01,73700,2106000,2179700,2083300,,2023-08-07
91025997841462400000000,48.5357747859,-72.2176048786,Roberval,91025,,819 boulevard de la TRAVERSEE,819,,,,BO,L,TRAVERSEE,,,,,997841462400000000,7452,,5100,2008-01-25,moral,landowner,,5435.50,1,,,,,,,,1,2018-07-01,183700,679900,863600,772200,,2023-08-07
94205364157297600000000,48.2139936718,-70.0730109996,Petit-Saguenay,94205,,54 rue Tremblay,54,,,,RU,,Tremblay,,,,,364157297600000000,6812,,1915,2020-06-15,moral,landowner,80.53,9719.80,1,1964,R,1375.5,single-detached,,,,1,2020-07-01,61200,1932600,1993800,1865500,,2023-08-07
38055165225284600000000,46.5129241274,-72.0617309220,Parisville,38055,,rang SAINTE-PHILOMENE OUEST,,,,,RA,,SAINTE-PHILOMENE OUEST,,,,,165225284600000000,7611,,0100,1990-02-15,moral,landowner,20.22,56495.90,1,1995,E,99.1,single-detached,,,,1,2020-07-01,15700,68300,84000,107800,,2023-08-07
69030800108382200000000,45.1559500319,-73.8149037196,Très-Saint-Sacrement,69030,,2036 route 203,2036,,,,RO,,203,,,,,800108382200000000,7452,665961,0137,1990-01-01,moral,landowner,27.47,2165.70,,,,,,,,,1,2020-07-01,67600,114200,181800,169200,,2023-08-07
39097158122199800000000,45.8628501235,-72.0775948511,Kingsey Falls,39097,,12E RANG,,,,,,,12E RANG,,,,,158122199800000000,7423,,5000,2011-07-01,moral,landowner,171.02,49105.10,,,,,single-detached,,,,,2018-07-01,15700,3900,19600,,,2023-08-07
65005754384595230000000,45.5376731295,-73.8647964866,Laval,65005,,150 rue les PEUPLIERS,150,,,,RU,S,PEUPLIERS,,,,,754384595230000000,7412,411655,2011,2013-01-01,moral,landowner,809.87,1305215.40,4,1952,E,,single-detached,,,,2,2020-07-01,5322500,9271800,14594300,14528100,,2023-08-07
45060171321214400000000,45.2493860352,-72.0678505563,Sainte-Catherine-de-Hatley,45060,,250 chemin de MAGOG,250,,,,CH,J,MAGOG,,,,,171321214400000000,7491,,6422,2015-05-01,moral,landowner,292.61,136247.50,1,,,,,,,,1,2019-07-01,687800,952200,1640000,976600,,2023-08-07
80145677886717000000000,45.8450771610,-75.6877317833,Bowman,80145,,515 route 307,515,,,,RO,,307,,,,,677886717000000000,7491,52502,1173,2011-12-13,moral,landowner,432.97,277133.50,1,1952,R,,,,,,1,2017-01-01,357700,208000,565700,565700,,2023-08-07
78102201890826200000000,46.2036405024,-74.5825762743,Mont-Tremblant,78102,,8630 montée RYAN,8630,,,,MO,,RYAN,,,,,201890826200000000,7411,227262,0075,1995-03-16,moral,landowner,,1204589.30,1,,,,,,,,1,2018-07-01,2963200,898200,3861400,,,2023-08-07
23027549571353270000000,46.8935854789,-71.1563591476,Québec,23027,REQ05,2700 avenue du Sault,2700,,,,AV,N,Sault,,,,,549571353270000000,7412,F107947,5458,2001-11-01,moral,landowner,,228175.20,2,,,,,,,,1,2020-07-01,615000,1715000,2330000,1585000,,2023-08-07
52007208125688700000000,45.8739532654,-73.3007455646,Lavaltrie,52007,,rue des CAPUCINES,,,,,RU,M,CAPUCINES,,,,,208125688700000000,7312,,1155,2012-07-16,moral,landowner,81.79,8514.90,,,,,,,,,,2019-07-01,253100,,253100,187300,,2023-08-07
88050057135039400000000,48.4731874683,-78.1424758754,Saint-Mathieu-d'Harricana,88050,,201 chemin Lanoix,201,,,,CH,,Lanoix,,,,,057135039400000000,7239,,7000,1982-09-01,moral,landowner,242.57,70735.20,2,2012,R,67.0,single-detached,full-storey,,,1,2019-07-01,47900,186500,234400,226000,,2023-08-07
45093971835256000000000,45.3009644244,-72.3202037744,Eastman,45093,,25 rue MISSISQUOI,25,,,,RU,,MISSISQUOI,,,,,971835256000000000,7219,,0002,1984-05-08,moral,landowner,58.87,6366.60,1,1969,R,463.6,single-detached,single-storey,,,1,2017-07-01,46900,125200,172100,172100,,2023-08-07
20010690368582200000000,46.9729656174,-70.9620368303,Sainte-Famille-de-l'Île-d'Orléans,20010,,2478 2482 405 chemin ROYAL,2478,,2482,405,CH,,ROYAL,,,,,690368582200000000,7219,42453,4000,1971-10-18,moral,landowner,114.67,10631.30,3,,,,,,,,2,2020-07-01,225600,2235900,2461500,2442000,,2023-08-07
31056519869430700000000,46.0279608475,-71.1871386384,Adstock,31056,,120 route du MONT-ADSTOCK,120,,,,RO,N,MONT-ADSTOCK,,,,,519869430700000000,7412,111295,9500,1993-11-17,moral,landowner,527.90,707500.00,1,1963,R,980.9,single-detached,,,,1,2018-07-01,1751500,608300,2359800,,,2023-08-07
88055068206885300000000,48.5741798056,-78.1272199598,Amos,88055,,601 04E RUE OUEST,601,,,,,,04E RUE OUEST,,,,,068206885300000000,6812,,0270,2019-08-15,moral,landowner,73.15,8500.80,1,1965,R,,single-detached,,,,1,2020-07-01,287500,339000,626500,513000,,2023-08-07
55008522032118300000000,45.3328828633,-72.8698756309,Ange-Gardien,55008,,rang SAINT-GEORGES,,,,,RA,,SAINT-GEORGES,,,,,522032118300000000,7290,,4888,2003-01-01,moral,landowner,,204770.80,,,,,,,,,,2020-07-01,360000,0,360000,330000,,2023-08-07
87042659119476800000000,48.6631941484,-78.6802022486,Taschereau,87042,,190 avenue Privat,190,,,,AV,,Privat,,,,,659119476800000000,6812,769,1015,2020-06-15,moral,landowner,92.97,8436.70,2,1958,R,1523.3,single-detached,single-storey,,,1,2017-07-01,22700,513000,535700,535700,,2023-08-07
71083513411235900000000,45.4464175237,-74.1865591064,Vaudreuil-Dorion,71083,,rue du RAVIN-BOISE,,,,,RU,N,RAVIN-BOISE,,,,,513411235900000000,7611,1020405,4550,2016-04-27,moral,landowner,,99641.70,,,,,,,,,,2020-07-01,0,0,0,0,,2023-08-07
77030558386845300000000,45.8909950783,-74.1302548476,Piedmont,77030,,chemin des HAUTS-BOIS,,,,,CH,M,HAUTS-BOIS,,,,,558386845300000000,7413,3179578,1716,2020-02-03,physical,landowner,46.11,2067.70,,1980,,,,,,,,2020-07-01,96800,13100,109900,96500,,2023-08-07
62047750307446100000000,46.0729343589,-73.8846500570,Chertsey,62047,,rue du LAC,,,,,RU,N,LAC,,,,,750307446100000000,7611,,4002,2001-10-08,moral,landowner,94.16,23344.30,,,,,,,,,,2020-07-01,58200,,58200,46200,,2023-08-07
68010988946314700000000,45.0466266866,-73.5819559041,Hemmingford,68010,,550 552 avenue GOYETTE,550,,552,,AV,,GOYETTE,,,,,988946314700000000,7425,934155,7301,1975-01-01,moral,landowner,15.24,15288.70,1,1970,R,659.2,single-detached,,,,2,2018-07-01,151400,685500,836900,820200,,2023-08-07
58007063602826000000000,45.4656373059,-73.4813969592,Brossard,58007,,rue PINARD,,,,,RU,,PINARD,,,,,063602826000000000,7499,421524,2550,2000-11-01,moral,landowner,,2144.06,,,,,,,,,,2020-07-01,273200,0,273200,195100,,2023-08-07
31084370291188900000000,46.0562325197,-71.3643629702,Thetford Mines,31084,,3543 boulevard FRONTENAC Ouest,3543,,,,BO,,FRONTENAC,O,,,,370291188900000000,7392,247494,5510,2014-07-07,physical,landowner,50.60,3084.40,,1965,R,,,,,,1,2020-07-01,80200,30900,111100,107400,,2023-08-07
82020614629868400000000,45.5604615311,-75.7763762212,Cantley,82020,,chemin A DETERMINER,,,,,CH,,A DETERMINER,,,,,614629868400000000,7611,,0253,2020-05-12,moral,landowner,52.97,6344.60,,,,,,,,,,2020-07-01,66400,,66400,45400,,2023-08-07
63035967681860200000000,45.8245592223,-73.6019100315,Saint-Roch-de-l'Achigan,63035,,611 101 611 102 rue J. OSWALD FOREST,611,101,611,102,RU,,J. OSWALD FOREST,,,,,967681860200000000,7424,,9111,2020-10-16,moral,landowner,115.76,12336.90,1,2020,R,2087.9,single-detached,,,,2,2019-07-01,503300,2904300,3407600,3139200,,2023-08-07
81017562966751300000000,45.4044585604,-75.8377226171,Gatineau,81017,,550 boulevard WILFRID-LAVIGNE,550,,,,BO,,WILFRID-LAVIGNE,,,,,562966751300000000,6812,46932,0812,2020-06-15,moral,landowner,134.12,12348.90,1,1979,R,,single-detached,single-storey,,,1,2019-07-01,1173100,3047900,4221000,5309100,,2023-08-07
33090286336551300000000,46.6078292156,-71.4980730879,Saint-Apollinaire,33090,,70 rue des Vignes,70,,,,RU,M,Vignes,,,,,286336551300000000,6812,,0709,2019-03-05,moral,landowner,133.70,16913.10,2,2019,R,3461.2,single-detached,,,,1,2019-07-01,381100,7618200,7999300,8020400,,2023-08-07
61035080087129700000000,46.0537312846,-73.4468002284,Saint-Charles-Borromée,61035,,221 chemin du GOLF Est,221,,,,CH,N,GOLF,E,,,,080087129700000000,7412,696497,9501,1951-12-31,moral,landowner,180.88,618096.56,1,1951,R,1570.6,single-detached,,,,1,2018-07-01,2991600,2161500,5153100,5132700,,2023-08-07
73010785509864600160000,45.6424012554,-73.8420486597,Sainte-Thérèse,73010,,100 rue DUQUET,100,,,,RU,,DUQUET,,,,,785509864600160000,7424,,4021,2012-01-14,moral,tenant of tax-exempt building,,,1,,,540.3,,,,,1,2018-07-01,146800,883700,1030500,1002100,,2023-08-07
46080630880411300020000,45.2096072295,-72.7483668089,Cowansville,46080,,206 rue CHRISTOPHE-COLOMB,206,,,,RU,,CHRISTOPHE-COLOMB,,,,,630880411300020000,7229,,2001,2019-02-15,physical,landowner,,1951.00,,,,35.7,single-detached,,,,1,2019-07-01,57300,265800,323100,309400,,2023-08-07
79037205440077700000000,46.5164349381,-74.9935096586,Rivière-Rouge,79037,,871 967 rue BRISEBOIS,871,,967,,RU,,BRISEBOIS,,,,,205440077700000000,7219,215044,1080,1968-03-06,moral,landowner,0.02,40285.90,1,1970,R,,,,,,1,2018-07-01,60100,350900,411000,470600,,2023-08-07
86042493273506600000000,48.1300998186,-78.8985150228,Rouyn-Noranda,86042,,6570 rang de la MARINA,6570,,,,RA,L,MARINA,,,,,493273506600000000,7491,,F101,1997-06-18,physical,landowner,168.44,75449.40,1,1990,R,,,,1,,1,2020-07-01,170500,476000,646500,728100,,2023-08-07
23027529203094170009001,46.8684930800,-71.1924802253,Québec,23027,REQ05,156 rue Seigneuriale,156,,,,RU,,Seigneuriale,,,,,529203094170009001,7392,F379248,5141,2010-04-22,moral,tenant of tax-exempt building,,743.20,1,1973,R,30.2,single-detached,single-storey,,,1,2020-07-01,366169,23508,389677,149000,,2023-08-07
67050852308668500000000,45.3546497452,-73.7518688369,Châteauguay,67050,,110 boulevard PRIMEAU,110,,,,BO,,PRIMEAU,,,,,852308668500000000,7421,2847334,7603,1975-03-04,moral,landowner,184.95,11291.40,1,1965,R,58.6,single-detached,,,,1,2020-07-01,312300,75500,387800,2128200,,2023-08-07
46078721977337100000000,45.3149331650,-72.6339904952,Bromont,46078,,rue de JOLIETTE,,,,,RU,J,JOLIETTE,,,,,721977337100000000,7611,,1116,2018-03-23,moral,landowner,,10238.90,,,,,,,,,,2018-07-01,100,0,100,,,2023-08-07
43027952614423700000000,45.3694839350,-71.8999996647,Sherbrooke,43027,REB04,rue des PROSPECTEURS,,,,,RU,M,PROSPECTEURS,,,,,952614423700000000,7611,,9998,2012-05-30,moral,landowner,61.00,48142.40,,,,,,,,,,2020-07-01,100,0,100,100,,2023-08-07
80090088022622500000000,45.8540956655,-75.1678090900,Montpellier,80090,,rue du BOSQUET,,,,,RU,N,BOSQUET,,,,,088022622500000000,7229,80322,1110,1995-01-01,moral,landowner,142.90,19077.30,,1983,R,,,,,,,2019-07-01,49200,2400,51600,42900,,2023-08-07
55057243402135400000000,45.4473861590,-73.2545504165,Richelieu,55057,,900 rue des OBLATS,900,,,,RU,M,OBLATS,,,,,243402135400000000,7611,,1004,1983-01-01,moral,landowner,206.06,24796.60,1,2016,R,119.5,single-detached,,,,1,2018-07-01,1982800,1415400,3398200,,,2023-08-07
80050025255623700000000,45.6058832393,-75.2466526096,Thurso,80050,,337 rue ÉLISABETH,337,,,,RU,,ÉLISABETH,,,,,025255623700000000,7423,50158,1704,2015-09-08,moral,landowner,14.00,16179.30,1,2007,R,,single-detached,,,,,2020-07-01,115400,57400,172800,167500,,2023-08-07
97007817098734800000000,50.2702962868,-66.4172578315,Sept-Îles,97007,,255 rue des GRANDS-DUCS,255,,,,RU,M,GRANDS-DUCS,,,,,817098734800000000,7611,163931,7001,1980-01-01,moral,building owner on public land,188.45,19040.90,1,2003,R,44.6,single-detached,,,,1,2020-07-01,255100,237200,492300,483100,,2023-08-07
66023984345197770000000,45.5320790834,-73.5816766094,Montréal,66023,REM21,1310 boulevard SAINT-JOSEPH Est,1310,,,,BO,,SAINT-JOSEPH,E,,,,984345197770000000,6812,30-F53200300,2645,2020-06-15,moral,landowner,43.65,3097.30,3,1923,R,2506.9,row house (end unit),,1,,1,2018-07-01,4745100,1100000,5845100,5299900,,2023-08-07
62020922124878400000000,46.2330360957,-73.6622682643,Sainte-Béatrix,62020,,chemin MARTIN-PREVOST,,,,,CH,,MARTIN-PREVOST,,,,,922124878400000000,7611,,0244,2008-01-14,moral,landowner,213.20,19666.90,,,,,,,,,,2018-07-01,58300,0,58300,58300,,2023-08-07
91042779493411600000000,48.6825005114,-72.5078571513,Saint-Félicien,91042,,2223 boulevard du JARDIN,2223,,,,BO,N,JARDIN,,,,,779493411600000000,7394,,8045,2009-12-01,moral,landowner,322.62,30657.60,1,,,,,,,,1,2018-07-01,61300,55700,117000,,,2023-08-07
40043907250967600000000,45.7788869236,-71.9683028405,Val-des-Sources,40043,,rue BREAULT,,,,,RU,,BREAULT,,,,,907250967600000000,7421,3339610,3100,2000-01-01,moral,landowner,142.69,26927.80,1,2013,R,19.3,single-detached,,,,1,2019-07-01,39000,58900,97900,84700,,2023-08-07
83020518983891300000000,45.9475521606,-75.8927654177,Lac-Sainte-Marie,83020,,89 chemin de RYANVILLE,89,,,,CH,J,RYANVILLE,,,,,518983891300000000,7412,79988,6000,2016-10-31,moral,landowner,,810182.60,1,1980,R,396.6,single-detached,single-storey,,,1,2020-07-01,540000,815200,1355200,1169800,,2023-08-07
42032024151801100000000,45.5030792085,-72.2487924873,Racine,42032,,138 route 222,138,,,,RO,,222,,,,,024151801100000000,6812,,0100,2020-06-15,moral,lessor,50.38,4251.60,1,1950,R,687.9,single-detached,,,,1,2019-07-01,49300,580400,629700,614500,,2023-08-07
40047867286025300000000,45.7836245163,-72.0175030929,Danville,40047,,1 ERE AVENUE,,,,,,,1 ERE AVENUE,,,,,867286025300000000,7423,3350041,1616,1997-10-17,moral,lessor,91.50,27519.60,,,,,,,,,,2017-07-01,72000,34800,106800,106800,,2023-08-07
83015399015766300000000,45.9185915553,-76.0458356673,Kazabazua,83015,,route 301,,,,,RO,,301,,,,,399015766300000000,7611,43238,5000,1999-01-01,moral,landowner,,443187.20,,,,,,,,,,2020-07-01,54200,0,54200,50100,,2023-08-07
77011650238154100000000,46.0643512746,-74.0104197397,Estérel,77011,,chemin du LAC-CROCHE,,,,,CH,N,LAC-CROCHE,,,,,650238154100000000,7431,847975,0157,2005-12-09,moral,landowner,109.66,3672.00,,,,,,,,,,2018-07-01,3500,0,3500,3500,,2023-08-07
49058838243314400000000,45.8766236310,-72.4868559551,Drummondville,49058,,2025 boulevard SAINT-JOSEPH,2025,,,,BO,,SAINT-JOSEPH,,,,,838243314400000000,7433,,0888,1979-09-01,moral,landowner,55.92,11833.00,2,1985,R,586.1,single-detached,,,,1,2019-07-01,100,1125300,1125400,1109000,,2023-08-07
23027468957632280000000,46.8444691898,-71.2636159278,Québec,23027,REQ04,5395 4e Avenue Ouest,5395,,,,,,4e Avenue Ouest,,,,,468957632280000000,7423,F106113,4135,1980-09-05,moral,landowner,187.41,56998.20,1,1980,R,428.8,single-detached,,,,1,2020-07-01,4415000,1000000,5415000,5550000,,2023-08-07
13095966166657200000000,47.4877762920,-69.2809395926,Pohénégamook,13095,,479 rue SAINT-VALLIER,479,,,,RU,,SAINT-VALLIER,,,,,966166657200000000,6812,19920,1106,1995-01-01,moral,landowner,68.70,5865.20,2,1954,R,1385.0,single-detached,,,,1,2017-07-01,32000,1323700,1355700,1355700,,2023-08-07
89008082982716100000000,48.0946925914,-77.7881712832,Val-d'Or,89008,,119 rue SELF,119,,,,RU,,SELF,,,,,082982716100000000,7425,,0915,2019-09-23,moral,landowner,,6199.60,1,2020,R,,single-detached,single-storey,,,1,2020-07-01,341000,16617000,16958000,15342000,,2023-08-07
42098115910707500000000,45.6634089180,-72.1349409755,Richmond,42098,,555 rue CRAIG,555,,,,RU,,CRAIG,,,,,115910707500000000,7417,,2502,2012-07-17,moral,landowner,58.43,2668.00,1,1986,R,1290.9,semi-detached,,,,2,2020-07-01,81000,682300,763300,723400,,2023-08-07
67045852244809200000000,45.3423168627,-73.7464957260,Mercier,67045,,11 rue de BATISCAN,11,,,,RU,J,BATISCAN,,,,,852244809200000000,6812,,0224,2020-07-07,moral,landowner,149.31,8118.80,2,2012,R,3015.8,single-detached,,,,1,2020-07-01,1014900,7482400,8497300,6543700,,2023-08-07
51065324667757000000000,46.4600284124,-73.1371019975,Saint-Alexis-des-Monts,51065,,11 21 rue des COLLEGES,11,,21,,RU,M,COLLEGES,,,,,324667757000000000,6813,,2024,2020-07-01,moral,landowner,159.04,11642.80,,,,,,,,,4,2016-07-01,142400,2996300,3138700,3138700,,2023-08-07
62020911947090300000000,46.2169455786,-73.6735621256,Sainte-Béatrix,62020,,rang SAINT-VINCENT,,,,,RA,,SAINT-VINCENT,,,,,911947090300000000,7611,,0121,2013-10-18,moral,landowner,103.42,2787.10,,,,,,,,,,2018-07-01,49200,0,49200,34700,,2023-08-07
NR830172609858100000000,46.2824500004,-76.3405797754,La Vallée-de-la-Gatineau,NR830,,RIVIÈRE HIBOU,,,,,,,RIVIÈRE HIBOU,,,,,172609858100000000,7491,60535,0010,1993-01-01,moral,lessor of public land,,3600.00,1,,,82.5,single-detached,single-storey,,,,2018-07-01,10800,26500,37300,44900,,2023-08-07
80145759025876400000000,45.9511628751,-75.5909807299,Bowman,80145,,166 chemin de la LIÈVRE Nord,166,,,,CH,L,LIÈVRE,N,,,,759025876400000000,7491,274581,1183,1995-01-01,moral,landowner,80.21,27465.60,1,,,,,,,,1,2017-01-01,169700,20500,190200,190200,,2023-08-07
12005180803546200000000,47.9075521055,-68.9788293453,Saint-Cyprien,12005,,chemin RAUDOT SUD,,,,,CH,,RAUDOT SUD,,,,,180803546200000000,7611,,0860,1996-06-13,moral,other,50.00,6000.20,,,,,,,,,,2017-07-01,5600,0,5600,5600,,2023-08-07
79115959898928100000000,46.9216397106,-75.3003622667,Sainte-Anne-du-Lac,79115,,chemin du TOUR-DU-LAC,,,,,CH,N,TOUR-DU-LAC,,,,,959898928100000000,7491,136826,0822,2000-01-21,moral,landowner,402.33,190674.10,1,2015,R,,single-detached,,,,,2018-07-01,55600,250000,305600,303200,,2023-08-07
10043315822417800000000,48.3580906513,-68.4891127794,Rimouski,10043,,rue des CRISTAUX,,,,,RU,M,CRISTAUX,,,,,315822417800000000,7411,,3400,2006-02-28,moral,landowner,6.10,548570.50,,,,,,,,,1,2018-07-01,128400,952800,1081200,,,2023-08-07
25213548445212700000000,46.7984757701,-71.1599588371,Lévis,25213,REA01,1425 rue WEYMAN,1425,,,,RU,,WEYMAN,,,,,548445212700000000,7611,,1094,2020-01-23,moral,landowner,12.52,6516.00,,,,,,,,,,2018-07-01,100,0,100,,,2023-08-07
97007086966738800000000,50.2543861405,-66.0430135434,Sept-Îles,97007,,1000 rue FOURNIER,1000,,,,RU,,FOURNIER,,,,,086966738800000000,7491,170577,5832,2015-11-01,moral,landowner,1385.50,105707.80,1,1976,R,116.9,single-detached,single-storey,2,,1,2020-07-01,147800,217700,365500,245000,,2023-08-07
67045851895904000000000,45.3065650844,-73.7398644971,Mercier,67045,,50 rue REID,50,,,,RU,,REID,,,,,851895904000000000,7422,,0431,2000-01-01,moral,landowner,140.07,26039.80,1,1978,R,16.7,single-detached,,,,1,2020-07-01,1822800,188400,2011200,1499000,,2023-08-07
57010184142579500000000,45.5114275952,-73.3252028775,Carignan,57010,,rue 5376350,,,,,RU,,5376350,,,,,184142579500000000,7611,,1207,2019-11-22,moral,landowner,,7690.00,,,,,,,,,,2020-07-01,120300,,120300,88100,,2023-08-07
66087833658262680000000,45.4716882425,-73.7725415670,Dorval,66087,,2000 avenue REVERCHON,2000,,,,AV,,REVERCHON,,,,,833658262680000000,7412,6-F00500265,0088,2016-01-01,moral,other,,932782.00,,,,,,,,,1,2018-07-01,37311300,4010800,41322100,35711100,,2023-08-07
11025002315324400000000,48.0422211459,-68.9038685504,Saint-Médard,11025,,3 rue de l' ÉGLISE,3,,,,RU,K,ÉGLISE,,,,,002315324400000000,7219,114045,1100,1998-03-04,moral,landowner,,1914.70,1,1979,R,206.4,single-detached,single-storey,,,1,2017-07-01,2200,64400,66600,66600,,2023-08-07
78102201932077200000000,46.2082809938,-74.5948869696,Mont-Tremblant,78102,,2900 chemin du VILLAGE,2900,,,,CH,N,VILLAGE,,,,,201932077200000000,7424,363071,0001,2020-12-20,moral,landowner,246.18,39058.90,1,,,,,,,,1,2018-07-01,967900,555400,1523300,,,2023-08-07
16048236451257600000000,47.5173260365,-70.2507836416,Les Éboulements,16048,,3141 route du FLEUVE,3141,,,,RO,N,FLEUVE,,,,,236451257600000000,7499,,0865,2019-09-01,moral,landowner,104.04,91984.00,2,,,190.2,single-detached,full-storey,1,,1,2018-07-01,86800,1530100,1616900,,,2023-08-07
94068506595399500000000,48.4266591483,-71.2278749056,Saguenay,94068,RES02,rue BOURASSA,,,,,RU,,BOURASSA,,,,,506595399500000000,7413,,E702,2020-10-27,moral,lessor,71.92,2586.50,,,,,single-detached,,,,,2020-07-01,178500,226700,405200,430400,,2023-08-07
94068626403334200000000,48.4160804759,-71.0782047461,Saguenay,94068,RES01,rue BOILY,,,,,RU,,BOILY,,,,,626403334200000000,7422,,K700,2020-03-10,moral,landowner,94.37,24076.50,,,,,single-detached,,,,,2020-07-01,343000,298000,641000,744500,,2023-08-07
32045102510363100000000,46.2577606146,-71.7272840829,Plessisville,32045,,rang du GOLF,,,,,RA,N,GOLF,,,,,102510363100000000,7412,7866,1180,2019-07-03,physical,landowner,60.00,72796.60,,,,,,,,,,2019-07-01,81100,,81100,45900,,2023-08-07
65005795075973040000000,45.5963136497,-73.8230017774,Laval,65005,,1400 boulevard MATTAWA,1400,,,,BO,,MATTAWA,,,,,795075973040000000,7412,407272,4353,2013-12-11,moral,landowner,1042.86,440413.10,2,1996,R,776.0,single-detached,,,,1,2020-07-01,1801300,3045900,4847200,4847200,,2023-08-07
56050329842879700000000,45.1240995349,-73.1480629613,Saint-Sébastien,56050,,115 rang de la Baie,115,,,,RA,L,Baie,,,,,329842879700000000,7239,165,0204,1979-03-01,moral,landowner,14.58,537.30,1,1960,R,269.0,single-detached,,,,2,2020-07-01,32200,119500,151700,142200,,2023-08-07
65005764451722320000000,45.5364020874,-73.8612718847,Laval,65005,,rue FERNANDO-PESSOA,,,,,RU,,FERNANDO-PESSOA,,,,,764451722320000000,7422,496813,2031,2005-08-10,moral,landowner,11.01,3063.00,,2014,R,,single-detached,,,,1,2020-07-01,405200,8900,414100,386100,,2023-08-07
94240667634359800000000,48.5260105282,-71.0207892446,Saint-Honoré,94240,,901 chemin du Cap,901,,,,CH,N,Cap,,,,,667634359800000000,7491,,9200,1992-12-03,moral,landowner,30.00,192523.70,1,,,,,,1,,1,2018-07-01,38500,431400,469900,445300,,2023-08-07
94235816556338900000000,48.4297796258,-70.8135724349,Saint-Fulgence,94235,,250 chemin de la Pointe-aux-Pins,250,,,,CH,L,Pointe-aux-Pins,,,,,816556338900000000,7611,,3110,2007-10-30,moral,lessor,1036.02,1773092.50,1,,,,,,,,1,2019-07-01,106400,729400,835800,891600,,2023-08-07
28045164152056400000000,46.4109976258,-70.3478000914,Sainte-Justine,28045,,250 rue PRINCIPALE,250,,,,RU,,PRINCIPALE,,,,,164152056400000000,7219,2839,4302,1960-11-09,moral,landowner,32.61,3043.70,1,1940,E,369.7,single-detached,,,,2,2019-07-01,35700,230800,266500,164100,,2023-08-07
20030569040913000000000,46.8481486540,-71.1331941853,Sainte-Pétronille,20030,,chemin ROYAL,,,,,CH,,ROYAL,,,,,569040913000000000,7412,43834,7400,1994-09-23,physical,landowner,,29566.70,,,,,,,,,,2020-07-01,130100,,130100,126000,,2023-08-07
56015188963452900000000,45.0441100747,-73.3236211915,Noyan,56015,,rue Chez-soi,,,,,RU,,Chez-soi,,,,,188963452900000000,7422,317,0501,2009-10-27,moral,landowner,395.53,4790.40,,,,,,,,,,2020-07-01,70700,0,70700,70600,,2023-08-07
25213528538575000000000,46.8109792704,-71.1869044841,Lévis,25213,REA01,5995 rue SAINT-LAURENT,5995,,,,RU,,SAINT-LAURENT,,,,,528538575000000000,7239,,7703,2016-05-30,moral,landowner,59.54,8863.20,2,1896,R,960.0,single-detached,,,,1,2018-07-01,904900,728700,1633600,,,2023-08-07
90012585212667400060000,47.4211643723,-72.7900772528,La Tuque,90012,,59 rue MARIE-ROLLET,59,,,,RU,,MARIE-ROLLET,,,,,585212667400060000,7499,226138,2500,2003-01-01,moral,tenant of tax-exempt building,,,1,1998,R,222.4,single-detached,,,,1,2019-07-01,,104900,104900,94500,,2023-08-07
35010880779135500000000,47.0057360640,-72.3964613873,Lac-aux-Sables,35010,,chemin du LAC-BONNET,,,,,CH,N,LAC-BONNET,,,,,880779135500000000,7491,101288,0810,2011-01-01,moral,landowner,200.00,31866.00,1,1998,R,,,,,,1,2015-07-01,57800,15100,72900,72900,,2023-08-07
34025107177284400000000,46.6787351563,-71.7297756806,Donnacona,34025,,300 rue de l' EGLISE,300,,,,RU,K,EGLISE,,,,,107177284400000000,7229,,4006,1980-01-01,moral,landowner,,14260.50,1,,,,,,,,2,2018-07-01,516700,2527100,3043800,3156300,,2023-08-07
01023734738651900000000,47.3688962190,-61.9162294124,Les Îles-de-la-Madeleine,01023,,60 chemin de LA MARTINIQUE,60,,,,CH,J,LA MARTINIQUE,,,,,734738651900000000,7451,84055283,1701,2019-11-05,moral,landowner,155.81,35968.50,1,2019,R,5756.9,single-detached,,,,1,2018-07-01,149200,13307900,13457100,12848800,,2023-08-07
59020105781481200000000,45.6538803698,-73.4224343743,Varennes,59020,,rue de la TENURE,,,,,RU,L,TENURE,,,,,105781481200000000,7611,904913,0700,1999-11-09,moral,landowner,,805.60,,,,,,,,,,2020-07-01,97200,0,97200,88500,,2023-08-07
60013086667191200000000,45.7403016863,-73.4508942843,Repentigny,60013,,457 rue ROBILLARD,457,,,,RU,,ROBILLARD,,,,,086667191200000000,7611,,3290,2019-11-08,physical,landowner,156.01,18812.10,1,,,,,,,,1,2020-07-01,2881200,705900,3587100,2951800,,2023-08-07
67045851879356200000000,45.3103466565,-73.7431361946,Mercier,67045,,13 rue de l' EGLISE,13,,,,RU,K,EGLISE,,,,,851879356200000000,6812,,0400,2000-09-26,moral,landowner,155.57,8532.20,2,,,,,,,,,2020-07-01,1205800,2812800,4018600,3472700,,2023-08-07
05060202823168200000000,48.0885466709,-65.6350080774,Caplan,05060,,322 PERRON EST,322,,,,,,PERRON EST,,,,,202823168200000000,7491,,1013,1901-01-01,moral,landowner,236.87,26291.60,1,,,,,,,,1,2020-07-01,125800,166600,292400,253700,,2023-08-07
66023014973261890000000,45.5837660743,-73.5393920606,Montréal,66023,REM22,3155 rue DESAUTELS,3155,,,,RU,,DESAUTELS,,,,,014973261890000000,6812,30-F36033500,2742,2020-06-15,moral,landowner,91.44,4292.80,2,1959,R,2448.2,single-detached,,,,1,2018-07-01,3005000,2043900,5048900,4349900,,2023-08-07
38010984081946500000000,46.3930732886,-72.2769643194,Bécancour,38010,,3625 rue des ALBATROS,3625,,,,RU,M,ALBATROS,,,,,984081946500000000,7416,,0220,2018-07-12,moral,landowner,214.84,122400.00,1,,,,,,,,2,2020-07-01,280400,7801000,8081400,8232000,,2023-08-07
46078721757866201100000,45.2965412854,-72.6357265216,Bromont,46078,,150 rue CHAMPLAIN,150,,,,RU,,CHAMPLAIN,,,,,721757866201100000,7399,,1126,2019-06-01,moral,landowner,,,1,2019,R,38.2,single-detached,,,,1,2018-07-01,0,73500,73500,63200,,2023-08-07
35010849079723800000000,46.8527419584,-72.4505655084,Lac-aux-Sables,35010,,660 chemin SAINT-CHARLES,660,,,,CH,,SAINT-CHARLES,,,,,849079723800000000,7412,1639,0707,1984-01-01,moral,landowner,549.20,517102.60,1,,,,,,,,1,2015-07-01,211800,2107300,2319100,2319100,,2023-08-07
92070053901240700000000,49.0819735677,-72.1278832745,Saint-Stanislas,92070,,13 A chemin du LAC-EDEN,13,A,,,CH,N,LAC-EDEN,,,,,053901240700000000,7219,,2000,2004-01-01,moral,landowner,15.00,270.00,1,1999,R,125.0,single-detached,single-storey,,,1,2020-07-01,1900,43600,45500,39600,,2023-08-07
09048699381528200000000,48.6757337427,-67.9749364595,Métis-sur-Mer,09048,REC01,164 route 132,164,,,,RO,,132,,,,,699381528200000000,7412,3357328,1109,1995-01-01,moral,landowner,536.22,440799.80,1,1969,R,289.7,single-detached,,,,4,2020-07-01,72400,4422100,4494500,2368500,,2023-08-07
01023714710632500000000,47.3638431422,-61.9451763652,Les Îles-de-la-Madeleine,01023,,321 chemin BOISVILLE Ouest,321,,,,CH,,BOISVILLE,O,,,,714710632500000000,7412,604607,1027,2017-07-06,physical,landowner,262.23,219154.90,1,1971,R,210.0,single-detached,single-storey,,,1,2018-07-01,62200,501000,563200,551900,,2023-08-07
49030008253782700000000,45.8741284114,-72.2662374087,Saint-Lucien,49030,,5280 5330 7E RANG,5280,,5330,,,,7E RANG,,,,,008253782700000000,6812,207971,0102,2019-11-29,moral,landowner,105.77,12929.70,1,,,,,,,,2,2019-07-01,50900,476200,527100,668800,,2023-08-07
62075043823799500000000,46.3852509758,-73.5067758736,Saint-Damien,62075,,rue TASSE,,,,,RU,,TASSE,,,,,043823799500000000,7431,,7431,1994-08-09,moral,landowner,30.48,767.90,,,,,,,,,,2019-07-01,100,,100,100,,2023-08-07
63060859057555100000000,45.9562176892,-73.7481395682,Sainte-Julienne,63060,,chemin MC GILL,,,,,CH,,MC GILL,,,,,859057555100000000,7611,,7611,2019-12-04,moral,landowner,28.82,17457.50,,,,,,,,,,2020-07-01,24400,,24400,12200,,2023-08-07
79065016808683600000000,46.6522211166,-75.2422561108,Chute-Saint-Philippe,79065,,591 chemin du PROGRES,591,,,,CH,N,PROGRES,,,,,016808683600000000,6812,125151,1303,1955-04-13,moral,landowner,67.04,6131.60,2,1956,R,761.0,single-detached,,,,1,2019-07-01,16100,649200,665300,706300,,2023-08-07
53040318436109300000000,45.8988041042,-73.1569852288,Saint-Roch-de-Richelieu,53040,,500 rue SAINT-PIERRE,500,,,,RU,,SAINT-PIERRE,,,,,318436109300000000,7491,,0028,1992-05-01,moral,landowner,302.36,219880.30,1,2020,E,111.7,single-detached,,,,1,2019-07-01,1383700,2525100,3908800,2858000,,2023-08-07
43027872654146100000000,45.3682081594,-71.9971209584,Sherbrooke,43027,REB01,rue GUY-PIGEON,,,,,RU,,GUY-PIGEON,,,,,872654146100000000,7611,,9998,2010-07-16,moral,landowner,,6463.40,,,,,,,,,,2020-07-01,100,0,100,100,,2023-08-07
78015461266320900000000,46.1507233735,-74.2529568274,Lantier,78015,,croissant des TROIS-LACS,,,,,CR,M,TROIS-LACS,,,,,461266320900000000,7611,177265,1002,2007-08-29,moral,landowner,123.90,9502.70,,,,,,,,,,2020-07-01,100,,100,100,,2023-08-07
68030120537141100000000,45.1911670095,-73.4042713315,Napierville,68030,,285 rue de l' EGLISE,285,,,,RU,K,EGLISE,,,,,120537141100000000,6813,825905,7001,2000-10-05,moral,landowner,242.92,34056.30,2,1961,R,11123.9,single-detached,,,,2,2020-07-01,2009300,12631900,14641200,14209600,,2023-08-07
13065069565804000010001,47.7914456536,-68.8097072150,Saint-Michel-du-Squatec,13065,,400 VIEILLE ROUTE,400,,,,,,VIEILLE ROUTE,,,,,069565804000010001,7611,704626,1801,2013-01-01,moral,other,,,1,2012,R,,,,,,1,2020-07-01,12400,3388800,3401200,3047900,,2023-08-07
42055983938357600000000,45.4930643561,-72.3040404938,Valcourt,42055,,boulevard des CYPRES,,,,,BO,M,CYPRES,,,,,983938357600000000,7423,,0600,2017-10-24,moral,landowner,,10319.20,,,,,,,,,,2017-07-01,55400,37100,92500,92500,,2023-08-07
66023774153708630000000,45.5119214252,-73.8485054986,Montréal,66023,REM31,13207 rue DESJARDINS,13207,,,,RU,,DESJARDINS,,,,,774153708630000000,7433,18-F00342720,1155,2016-05-18,moral,landowner,121.55,10057.30,1,1991,R,74.9,single-detached,,,,1,2018-07-01,2956800,336900,3293700,2731300,,2023-08-07
43027903188908300000000,45.4177816584,-71.9554324733,Sherbrooke,43027,REB04,rue FRANCIS-MCCREA,,,,,RU,,FRANCIS-MCCREA,,,,,903188908300000000,7611,,9998,1988-11-02,moral,landowner,116.21,7191.90,,,,,,,,,,2020-07-01,100,0,100,100,,2023-08-07
82020604792847800000000,45.5631851657,-75.7801949035,Cantley,82020,,chemin A DETERMINER,,,,,CH,,A DETERMINER,,,,,604792847800000000,7611,,0253,2020-05-12,moral,landowner,93.53,5106.10,,,,,,,,,,2020-07-01,61100,,61100,41600,,2023-08-07
78032369882256700000000,46.0208499787,-74.3779560795,Sainte-Agathe-des-Monts,78032,,chemin du LAC-AZUR,,,,,CH,N,LAC-AZUR,,,,,369882256700000000,7431,354241,3031,2004-05-10,moral,landowner,,362.90,,,,,,,,,,2020-07-01,100,0,100,100,,2023-08-07
96015766127258700000000,49.2934253207,-67.8928825169,Franquelin,96015,,rue des ERABLES,,,,,RU,M,ERABLES,,,,,766127258700000000,7424,3202783,1200,1987-03-03,moral,landowner,107.45,875.50,2,1948,R,490.6,,,,,1,2017-07-01,3400,291800,295200,295200,,2023-08-07
93042188398965600000000,48.5873731003,-71.6631816323,Alma,93042,,chemin de la MARINA,,,,,CH,L,MARINA,,,,,188398965600000000,7442,,1130,2020-09-03,moral,landowner,9.74,181.20,,,,,,,,,,2020-07-01,11100,,11100,11100,,2023-08-07
92070013008302200000000,49.0083183583,-72.1840096484,Saint-Stanislas,92070,,rang CHABOT,,,,,RA,,CHABOT,,,,,013008302200000000,7219,,7030,2021-04-20,moral,landowner,262.21,180274.20,1,1965,R,260.1,single-detached,,,,1,2020-07-01,30100,59800,89900,87300,,2023-08-07
18050009976472900000000,46.9361498181,-70.5530624456,Montmagny,18050,,455 chemin Saint-Léon,455,,,,CH,,Saint-Léon,,,,,009976472900000000,7223,1351,1802,1995-01-01,moral,landowner,212.79,345731.50,2,1998,R,234.5,single-detached,,,,1,2020-07-01,246300,337300,583600,534400,,2023-08-07
78010499679286300000000,46.0107451258,-74.2110227425,Val-David,78010,,1930 1949 rue GUERTIN,1930,,1949,,RU,,GUERTIN,,,,,499679286300000000,7493,268152001,1805,2004-11-12,moral,landowner,,42877.50,1,,,154.1,single-detached,attic,1,,1,2019-07-01,510200,198400,708600,660700,,2023-08-07
78010519997831400000000,46.0346019494,-74.1769384519,Val-David,78010,,1165 chemin du CONDOR,1165,,,,CH,N,CONDOR,,,,,519997831400000000,7499,271049,2306,2003-05-01,moral,landowner,,3966164.50,1,,,,,,,,2,2019-07-01,3082600,304400,3387000,3375300,,2023-08-07
78010510131026900000000,46.0482391643,-74.1912562487,Val-David,78010,,1ER RANG DE DONCASTER,,,,,,,1ER RANG DE DONCASTER,,,,,510131026900000000,7611,345386,1710,2006-12-14,moral,landowner,,31466.80,,,,,,,,,,2019-07-01,,,0,,,2023-08-07
78010520055633000000000,46.0426698346,-74.1750186365,Val-David,78010,,chemin des BOISES-CHAMPETRES,,,,,CH,M,BOISES-CHAMPETRES,,,,,520055633000000000,7611,345965,1708,2007-04-27,moral,landowner,,16361.40,,,,,,,,,,2019-07-01,,,0,,,2023-08-07
78010470066984400000000,46.0430994908,-74.2374754253,Val-David,78010,,rue RIVERSIDE,,,,,RU,,RIVERSIDE,,,,,470066984400000000,7431,266256,1511,1986-01-01,physical,landowner,4.50,677.10,,,,,,,,,,2019-07-01,,,0,,,2023-08-07
78010510029818700000000,46.0465975624,-74.1897749869,Val-David,78010,,BELLE ETOILE,,,,,,,BELLE ETOILE,,,,,510029818700000000,7491,267619,1710,1994-10-27,moral,landowner,,82115.60,,,,,,,,,,2019-07-01,330000,,330000,331500,,2023-08-07
42098105933526900000000,45.6660730802,-72.1454378006,Richmond,42098,,800 rue GOUIN,800,,,,RU,,GOUIN,,,,,105933526900000000,7451,,3121,1998-01-01,moral,landowner,267.82,33273.80,1,,,,,,,,5,2020-07-01,396400,1592000,1988400,1767300,,2023-08-07
42098105890782300000000,45.6539307148,-72.1376322319,Richmond,42098,,355 rue du COLLEGE Sud,355,,,,RU,N,COLLEGE Sud,,,,,105890782300000000,6812,,1112,1989-04-19,moral,landowner,87.66,20197.20,3,1915,R,3907.9,single-detached,,,,1,2020-07-01,221700,1914500,2136200,1872300,,2023-08-07
42098105870205000000000,45.6553129227,-72.1413533721,Richmond,42098,,220 rue PRINCIPALE Sud,220,,,,RU,,PRINCIPALE Sud,,,,,105870205000000000,7444,,1501,1987-04-02,moral,landowner,12.19,47156.80,1,2006,R,120.8,single-detached,,,,1,2020-07-01,103700,134100,237800,226000,,2023-08-07
42098095833780100000000,45.6567852293,-72.1573995684,Richmond,42098,,rue BELMONT,,,,,RU,,BELMONT,,,,,095833780100000000,7493,,0101,2000-01-01,moral,landowner,,118213.80,1,,,,,,1,,1,2020-07-01,160200,174000,334200,560800,,2023-08-07
42098095788304300000000,45.6531979565,-72.1532409296,Richmond,42098,,75 rue BELMONT,75,,,,RU,,BELMONT,,,,,095788304300000000,7412,,0101,2013-04-18,moral,landowner,254.67,145725.70,1,1959,R,212.5,single-detached,,,,1,2020-07-01,156700,696100,852800,1110700,,2023-08-07
42025163565713900000000,45.4510124888,-72.0694686312,Saint-Denis-de-Brompton,42025,,route 222,,,,,RO,,222,,,,,163565713900000000,7611,,0822,1995-02-27,moral,landowner,59.82,26030.70,,,,,,,,,,2020-07-01,60400,0,60400,53900,,2023-08-07
42025123524220000000000,45.4506358876,-72.1259956464,Saint-Denis-de-Brompton,42025,,chemin du DOMAINE,,,,,CH,N,DOMAINE,,,,,123524220000000000,7611,,1803,2010-01-20,moral,landowner,57.75,553323.80,,,,,,,,,,2020-07-01,200,0,200,100,,2023-08-07
67015053139661700000000,45.4262259279,-73.4935523354,La Prairie,67015,,autoroute 15,,,,,AT,,15,,,,,053139661700000000,7611,940008,7601,2019-10-09,moral,landowner,,38720.70,,,,,,,,,,2018-07-01,1548800,0,1548800,1355200,,2023-08-07
69010719248853300000000,45.0744575650,-73.9239199131,Franklin,69010,,route 201,,,,,RO,,201,,,,,719248853300000000,7223,397421,1204,2009-08-27,physical,landowner,571.22,238958.90,,,,,,,,,,2020-07-01,152400,49000,201400,196000,,2023-08-07
69010719239482800000000,45.0755463878,-73.9248610424,Franklin,69010,,3185 chemin BERUBE,3185,,,,CH,,BERUBE,,,,,719239482800000000,7223,397419,1204,2009-12-03,moral,landowner,60.96,10737.10,1,1997,R,100.1,single-detached,,,,1,2020-07-01,37000,51300,88300,76600,,2023-08-07
69010719053694300000000,45.0521520365,-73.9216175403,Franklin,69010,,1935 chemin GRIMSHAW,1935,,,,CH,,GRIMSHAW,,,,,719053694300000000,7491,398977,9521,2016-01-26,moral,landowner,203.84,347428.70,1,2019,R,119.1,single-detached,single-storey,1,,1,2020-07-01,225400,290500,515900,507500,,2023-08-07
69010708725512100000000,45.0268178838,-73.9383285327,Franklin,69010,,1410 route 202,1410,,,,RO,,202,,,,,708725512100000000,6812,398365,8502,1998-07-01,moral,landowner,92.08,9655.50,1,1960,R,871.0,single-detached,,,,1,2020-07-01,101600,370900,472500,454500,,2023-08-07
69010749015717300000000,45.0543718104,-73.8884724784,Franklin,69010,,2555 rue du PARC,2555,,,,RU,N,PARC,,,,,749015717300000000,7424,399438,1211,1980-07-15,moral,landowner,292.11,40112.10,1,1986,R,389.8,single-detached,,,,1,2020-07-01,82100,506200,588300,578700,,2023-08-07
69010769100224500000000,45.0590133583,-73.8657192560,Franklin,69010,,2914 route 209,2914,,,,RO,,209,,,,,769100224500000000,7491,399361,9521,2004-06-29,moral,landowner,682.30,896308.30,1,,,283.9,single-detached,,7,,1,2020-07-01,525400,210000,735400,702000,,2023-08-07
69010729196293700000000,45.0645783087,-73.9067117057,Franklin,69010,,3625 route 201,3625,,,,RO,,201,,,,,729196293700000000,7491,401095,9520,1975-01-01,moral,landowner,940.93,1129653.40,2,1964,R,2410.8,single-detached,,,,1,2020-07-01,897500,3144300,4041800,3968700,,2023-08-07
69010749003496100000000,45.0525693554,-73.8904019312,Franklin,69010,,4110 rue de l' EGLISE,4110,,,,RU,K,EGLISE,,,,,749003496100000000,6812,399404,1211,1998-07-01,moral,landowner,98.45,13503.20,1,1965,R,798.2,single-detached,,,,1,2020-07-01,61700,766200,827900,818300,,2023-08-07
61050090917411100000000,46.1272931868,-73.4436098146,Sainte-Mélanie,61050,,300 rue des CAMPEURS,300,,,,RU,M,CAMPEURS,,,,,090917411100000000,7491,440383,9522,2008-11-11,moral,landowner,232.58,112961.00,1,1975,E,216.8,single-detached,,1,,1,2020-07-01,370500,1023100,1393600,884500,,2023-08-07
61050040593056900000000,46.0888406664,-73.4990328802,Sainte-Mélanie,61050,,100 130 rue BERNARD,100,,130,,RU,,BERNARD,,,,,040593056900000000,7491,438835,9521,1980-04-14,moral,landowner,206.02,213440.40,1,1966,R,62.4,single-detached,,5,,1,2020-07-01,399500,1116900,1516400,889400,,2023-08-07
61050041003359900000000,46.1333750273,-73.5098864925,Sainte-Mélanie,61050,,20 30 rue des ORMES,20,,30,,RU,M,ORMES,,,,,041003359900000000,7219,439757,7301,1987-10-29,moral,landowner,175.22,24168.00,1,1989,R,272.2,single-detached,,,,1,2020-07-01,342500,229000,571500,541100,,2023-08-07
61050031072623100000000,46.1318877761,-73.5134405271,Sainte-Mélanie,61050,,100 rue de l' EGLISE,100,,,,RU,K,EGLISE,,,,,031072623100000000,6812,438938,7001,2020-06-15,moral,landowner,109.57,11537.30,2,1958,R,2183.2,single-detached,,,,1,2020-07-01,200500,1635900,1836400,1805000,,2023-08-07
59010215056646500000000,45.5962738223,-73.2852442820,Sainte-Julie,59010,,100 chemin du GOLF,100,,,,CH,N,GOLF,,,,,215056646500000000,7412,,9500,1975-01-01,moral,landowner,32.75,871153.00,2,,,,,,,,1,2020-07-01,2430000,7692000,10122000,8950000,,2023-08-07
59010194759065100000000,45.5768409543,-73.3116387744,Sainte-Julie,59010,,montée des QUARANTE-DEUX,,,,,MO,M,QUARANTE-DEUX,,,,,194759065100000000,7290,,4550,2002-10-03,moral,landowner,,32630.80,,,,,,,,,,2020-07-01,100,0,100,100,,2023-08-07
59010164960019400000000,45.5816796576,-73.3487885205,Sainte-Julie,59010,,2080 rue BORDUAS,2080,,,,RU,,BORDUAS,,,,,164960019400000000,7432,,7006,1994-10-03,moral,landowner,69.96,8611.60,1,1995,R,1804.6,single-detached,,,,1,2020-07-01,1076500,3335700,4412200,4255700,,2023-08-07
59010154985233700000000,45.6035979590,-73.3566548969,Sainte-Julie,59010,,1111 rue DESROCHERS,1111,,,,RU,,DESROCHERS,,,,,154985233700000000,7611,,3301,1985-12-02,moral,landowner,,438822.50,1,1992,R,58.5,single-detached,,,,1,2020-07-01,18359500,169800,18529300,18516800,,2023-08-07
59010184860303500000000,45.5722679206,-73.3227921067,Sainte-Julie,59010,,450 rue CHARLES-DE GAULLE,450,,,,RU,,CHARLES-DE GAULLE,,,,,184860303500000000,6812,,7000,2020-06-15,moral,landowner,219.22,28617.40,1,1978,R,4457.2,single-detached,,,,1,2020-07-01,3577200,4810100,8387300,7503300,,2023-08-07
65005965703308500000000,45.6563571543,-73.6126441631,Laval,65005,,650 avenue des PELICANS,650,,,,AV,M,PELICANS,,,,,965703308500000000,6812,603233,7015,2016-05-25,moral,landowner,194.52,22225.90,2,2017,R,5423.9,single-detached,,,,1,2020-07-01,5454600,12310400,17765000,15532800,,2023-08-07
59010205121637200000000,45.6002886873,-73.3017816416,Sainte-Julie,59010,,707 rang de la VALLEE,707,,,,RA,L,VALLEE,,,,,205121637200000000,7425,,0803,1975-01-01,moral,landowner,104.00,34888.80,1,1965,R,113.8,single-detached,single-storey,,,1,2020-07-01,222400,115100,337500,305000,,2023-08-07
59010145128560000000000,45.6061329005,-73.3790610591,Sainte-Julie,59010,,2001 rue MICHAEL-FARADAY,2001,,,,RU,,MICHAEL-FARADAY,,,,,145128560000000000,7233,,0801,1975-01-01,moral,landowner,209.63,36503.90,1,1990,R,561.9,single-detached,,,,1,2020-07-01,243300,706000,949300,827300,,2023-08-07
57068296728746500000000,45.7502498226,-73.1855288390,Saint-Denis-sur-Richelieu,57068,,1180 1182 chemin des PATRIOTES,1180,,1182,,CH,M,PATRIOTES,,,,,296728746500000000,7441,836066,0223,2016-11-30,moral,landowner,64.17,6022.90,1,2002,R,84.1,single-detached,,,,1,2018-07-01,144100,218200,362300,307900,,2023-08-07
65005784882217440000000,45.5738897187,-73.8328594608,Laval,65005,,4001 boulevard SAINTE-ROSE,4001,,,,BO,,SAINTE-ROSE,,,,,784882217440000000,6813,418353,2311,2013-07-05,moral,landowner,25.77,52861.80,3,2015,R,6115.1,single-detached,,,,1,2020-07-01,4647100,11672500,16319600,13868200,,2023-08-07
65005774890667100000000,45.5720284823,-73.8437839779,Laval,65005,,1100 avenue 37E,1100,,,,AV,,37E,,,,,774890667100000000,6812,11085,2310,2015-07-17,moral,landowner,132.99,11615.70,2,2016,R,4295.9,single-detached,,,,1,2020-07-01,2044200,10063600,12107800,10797600,,2023-08-07
57045215180165300000000,45.5990448736,-73.2818084316,Saint-Mathieu-de-Beloeil,57045,,chemin de l' INDUSTRIE,,,,,CH,K,INDUSTRIE,,,,,215180165300000000,7411,121230,9500,1979-09-01,moral,landowner,198.97,314615.70,,,,,,,,,,2020-07-01,943800,1152800,2096600,1343900,,2023-08-07
52085102845869600000000,46.2970790018,-73.4262692746,Saint-Gabriel-de-Brandon,52085,,6 IEME RANG,,,,,,,6 IEME RANG,,,,,102845869600000000,7431,,4550,2015-07-15,physical,landowner,118.84,1712.00,,,,,,,,,,2018-07-01,0,,0,,,2023-08-07
62007081570820100000000,46.1747615334,-73.4484302027,Saint-Félix-de-Valois,62007,,avenue des SAULES,,,,,AV,M,SAULES,,,,,081570820100000000,7611,,4145,2002-05-09,moral,landowner,134.43,9320.80,,,,,,,,,,2019-07-01,38300,,38300,35600,,2023-08-07
62007081914427500000000,46.2150174135,-73.4566815054,Saint-Félix-de-Valois,62007,,1200 chemin de la LIGNE-BRANDON,1200,,,,CH,L,LIGNE-BRANDON,,,,,081914427500000000,7491,,7490,2017-05-01,moral,landowner,512.85,681481.20,2,,,,,,1,,1,2019-07-01,705000,790700,1495700,1346400,,2023-08-07
62007081877452300000000,46.2082488815,-73.4488802336,Saint-Félix-de-Valois,62007,,rue de la PLAGE,,,,,RU,L,PLAGE,,,,,081877452300000000,7422,,0345,2006-09-28,moral,landowner,160.13,24886.10,,,,,,,,,,2019-07-01,29500,,29500,27000,,2023-08-07
62007071848645300000000,46.2093835125,-73.4654131114,Saint-Félix-de-Valois,62007,,2294 rang SAINT-LEON,2294,,,,RA,,SAINT-LEON,,,,,071848645300000000,7491,,7494,2012-12-19,moral,landowner,175.10,156773.80,1,,,,,,2,,1,2019-07-01,705500,702000,1407500,1278100,,2023-08-07
54105496630153000000000,45.7327187136,-72.9280218729,Saint-Barnabé-Sud,54105,,269 rang de MICHAUDVILLE,269,,,,RA,J,MICHAUDVILLE,,,,,496630153000000000,7424,,0503,2000-01-01,moral,landowner,229.83,20147.40,1,1992,R,76.6,single-detached,single-storey,,,1,2020-07-01,114000,63100,177100,156600,,2023-08-07
54105496549413400000000,45.7318166066,-72.9265615032,Saint-Barnabé-Sud,54105,,265 rang de MICHAUDVILLE,265,,,,RA,J,MICHAUDVILLE,,,,,496549413400000000,6812,,0503,2000-01-01,moral,landowner,18.29,9244.30,1,2018,R,1455.5,single-detached,,,,1,2020-07-01,123200,4199500,4322700,3764200,,2023-08-07
62007081489967100000000,46.1744936033,-73.4469519197,Saint-Félix-de-Valois,62007,,5400 rue des ERABLES,5400,,,,RU,M,ERABLES,,,,,081489967100000000,7433,,4145,1973-10-13,moral,landowner,60.96,1672.30,1,1970,R,24.0,single-detached,single-storey,,,,2019-07-01,34700,35000,69700,66500,,2023-08-07
54100547253746700000000,45.7894282228,-72.8598373034,Saint-Hugues,54100,,188 rue SAINT-GERMAIN,188,,,,RU,,SAINT-GERMAIN,,,,,547253746700000000,7422,,1000,2000-01-01,moral,lessor,133.00,11680.00,1,1992,R,28.5,single-detached,,,,1,2020-07-01,121700,46300,168000,140500,,2023-08-07
49058848170630600000000,45.8642201921,-72.4699725325,Drummondville,49058,,1350 rue du PARC,1350,,,,RU,N,PARC,,,,,848170630600000000,7423,,0888,1980-09-01,moral,landowner,,18502.80,,,,,,,,,,2019-07-01,100,197600,197700,205000,,2023-08-07
49058848447494100000000,45.8978985184,-72.4735622117,Drummondville,49058,,rue LAURA-HEROUX,,,,,RU,,LAURA-HEROUX,,,,,848447494100000000,7219,,1114,2012-02-26,moral,tenant of tax-exempt building,19.31,1079.30,1,1976,R,220.8,single-detached,,,,2,2019-07-01,69900,286200,356100,339000,,2023-08-07
03010804818401300000000,49.1770629927,-64.8382273107,Cloridorme,03010,,570 route 132,570,,,,RO,,132,,,,,804818401300000000,7451,177728,1009,1983-01-01,moral,landowner,31.30,18142.90,1,,,,,,,,2,2019-07-01,7500,229200,236700,231800,,2023-08-07
03010814861884000000000,49.1709277416,-64.8169807994,Cloridorme,03010,,2 route du PORTAGE,2,,,,RO,N,PORTAGE,,,,,814861884000000000,7424,177912,1003,1999-07-13,moral,landowner,171.89,55435.20,1,2017,R,213.6,single-detached,,,,1,2019-07-01,8100,975100,983200,838700,,2023-08-07
03010804901650100000000,49.1794676556,-64.8393116385,Cloridorme,03010,,535 route 132,535,,,,RO,,132,,,,,804901650100000000,6812,177842,1008,1999-03-17,moral,landowner,88.17,7135.90,2,,,,,,,,1,2019-07-01,8800,1420200,1429000,1229000,,2023-08-07
93012096482274600000000,48.4097203596,-71.7828340727,Métabetchouan—Lac-à-la-Croix,93012,,335 rue de ROUILLAC,335,,,,RU,J,ROUILLAC,,,,,096482274600000000,7290,60550,5510,1993-08-17,moral,landowner,46.27,5127.30,2,,,,,,,,1,2018-07-01,113000,1080400,1193400,975500,,2023-08-07
93012096379216000000000,48.4076102815,-71.7842121094,Métabetchouan—Lac-à-la-Croix,93012,,410 rue ST-ISIDORE,410,,,,RU,,ST-ISIDORE,,,,,096379216000000000,7417,60438,6510,2001-08-23,moral,landowner,161.25,7866.80,1,,,,,,,,2,2018-07-01,51900,213100,265000,261000,,2023-08-07
93012096461191200000000,48.4086247871,-71.7860375870,Métabetchouan—Lac-à-la-Croix,93012,,196 rue ST-LOUIS,196,,,,RU,,ST-LOUIS,,,,,096461191200000000,7431,,7120,2016-09-13,moral,landowner,28.49,10835.30,,,,,single-detached,,,,,2018-07-01,9600,14800,24400,23900,,2023-08-07
93012097201650500000000,48.4802927538,-71.7952400554,Métabetchouan—Lac-à-la-Croix,93012,,505 5E CHEMIN,505,,,,,,5E CHEMIN,,,,,097201650500000000,7499,106409,2050,2009-01-14,physical,landowner,62.39,2260.70,1,1987,R,112.9,single-detached,single-storey,,,1,2018-07-01,177800,71000,248800,239700,,2023-08-07
93012056755440200000000,48.4382580180,-71.8422254307,Métabetchouan—Lac-à-la-Croix,93012,,1569 route 169,1569,,,,RO,,169,,,,,056755440200000000,6813,59553,5000,2003-07-01,moral,landowner,844.56,271207.30,2,,,,,,,,1,2018-07-01,602300,8090000,8692300,8190800,,2023-08-07
93012087261295700000000,48.4807137612,-71.8004333851,Métabetchouan—Lac-à-la-Croix,93012,,451 6E CHEMIN,451,,,,,,6E CHEMIN,,,,,087261295700000000,7491,59798,6100,1983-01-01,moral,landowner,,22774.80,1,1990,R,,single-detached,,,,1,2018-07-01,287100,52100,339200,311200,,2023-08-07
49058828055061900000000,45.8601506259,-72.4992730856,Drummondville,49058,,2220 rue SAINT-DENIS,2220,,,,RU,,SAINT-DENIS,,,,,828055061900000000,7421,,0888,1979-09-01,moral,landowner,74.91,10446.90,1,1990,R,58.5,single-detached,,,,1,2019-07-01,100,73300,73400,85100,,2023-08-07
93012077196852400000000,48.4757434495,-71.8096997094,Métabetchouan—Lac-à-la-Croix,93012,,500 9E CHEMIN,500,,,,,,9E CHEMIN,,,,,077196852400000000,7491,58675,6100,1999-01-01,moral,landowner,176.16,18716.30,1,,,,,,1,,1,2018-07-01,430900,159800,590700,561900,,2023-08-07
93012077174984400000000,48.4742807124,-71.8118175489,Métabetchouan—Lac-à-la-Croix,93012,,route 170,,,,,RO,,170,,,,,077174984400000000,7491,58697,6100,1999-01-01,moral,landowner,294.90,39017.10,,,,,,,,,,2018-07-01,488900,0,488900,476200,,2023-08-07
93012077162155300000000,48.4723827806,-71.8144996751,Métabetchouan—Lac-à-la-Croix,93012,,600 route ST-ISIDORE,600,,,,RO,,ST-ISIDORE,,,,,077162155300000000,7491,59733,6100,2016-04-26,moral,landowner,202.11,22777.70,1,,,,,,1,,1,2018-07-01,453900,231000,684900,653300,,2023-08-07
93012036780676000000000,48.4369919607,-71.8591413196,Métabetchouan—Lac-à-la-Croix,93012,,18 rue ST-ANDRE,18,,,,RU,,ST-ANDRE,,,,,036780676000000000,7431,59088,6000,1997-01-01,moral,landowner,,87610.00,,,,,,,,,,2018-07-01,400500,0,400500,398500,,2023-08-07
93012105903432700000000,48.3655291637,-71.7789994932,Métabetchouan—Lac-à-la-Croix,93012,,165 route de la MONTAGNE,165,,,,RO,L,MONTAGNE,,,,,105903432700000000,7499,60594,3500,2012-01-31,physical,landowner,71.75,2143.40,1,1990,R,166.5,single-detached,,,,1,2018-07-01,7600,57800,65400,61100,,2023-08-07
93012087128497600000000,48.4780997907,-71.8061176427,Métabetchouan—Lac-à-la-Croix,93012,,700 7E CHEMIN,700,,,,,,7E CHEMIN,,,,,087128497600000000,7491,58669,6100,1999-01-01,moral,landowner,159.42,13712.70,1,1990,R,55.5,single-detached,,,,1,2018-07-01,368800,86600,455400,422400,,2023-08-07
83032390641513500000000,46.0941236945,-76.0518850126,Gracefield,83032,,29 rue PRINCIPALE,29,,,,RU,,PRINCIPALE,,,,,390641513500000000,7425,56067,6003,2014-10-27,physical,landowner,18.41,1135.90,2,1955,R,315.4,semi-detached,full-storey,3,,1,2020-07-01,47000,165100,212100,166300,,2023-08-07
83032390527641500000000,46.0903556015,-76.0543076221,Gracefield,83032,,5 rue de la POLYVALENTE,5,,,,RU,L,POLYVALENTE,,,,,390527641500000000,7239,55878,7000,2007-06-01,moral,landowner,27.53,1093.30,1,1992,R,520.8,single-detached,,,,1,2020-07-01,18000,501800,519800,390300,,2023-08-07
66023934748491920000000,45.5702131537,-73.6454927786,Montréal,66023,REM23,9920 9930 rue PARTHENAIS,9920,,9930,,RU,,PARTHENAIS,,,,,934748491920000000,6812,30-F71196950,2956,2020-06-15,moral,landowner,152.09,6796.00,3,1951,R,3366.0,single-detached,,,,1,2018-07-01,3832900,2232200,6065100,5294500,,2023-08-07
05070043555507700000000,48.1484859864,-65.8451345987,New Richmond,05070,,149 boulevard PERRON EST,149,,,,BO,,PERRON EST,,,,,043555507700000000,7491,155930,1014,2007-11-13,moral,landowner,153.43,290556.20,1,,,,,,,,1,2019-07-01,361800,551400,913200,824100,,2023-08-07
05070043528300000000000,48.1525585964,-65.8509436745,New Richmond,05070,,103 boulevard PERRON EST,103,,,,BO,,PERRON EST,,,,,043528300000000000,7611,,1014,2017-01-01,moral,landowner,150.44,150770.40,1,1975,R,389.9,single-detached,,,,1,2019-07-01,274200,128400,402600,367100,,2023-08-07
74005705994724302000000,45.6740508797,-73.9341984030,Mirabel,74005,,11600 montée STE MARIANNE,11600,,,,MO,,STE MARIANNE,,200,200,,705994724302000000,7229,,1442,2020-05-22,moral,condo owner,23.73,1453.50,1,2016,R,276.5,,,,,1,2018-07-01,294300,336800,631100,576000,,2023-08-07
74005736305716400000000,45.7112310426,-73.9075240334,Mirabel,74005,,18555 rue HUBERT AQUIN,18555,,,,RU,,HUBERT AQUIN,,,,,736305716400000000,6812,,0951,2017-02-14,moral,landowner,192.45,15074.30,2,2017,R,4532.2,single-detached,,,,1,2018-07-01,519100,9497600,10016700,9303700,,2023-08-07
74005715979147100000000,45.6788382985,-73.9247167513,Mirabel,74005,,11840 rue de CHAUMONT,11840,,,,RU,J,CHAUMONT,,,,,715979147100000000,7395,,1439,2020-10-23,moral,landowner,45.20,2938.00,1,2019,R,928.9,,,,,1,2018-07-01,687500,1282000,1969500,1808000,,2023-08-07
74005665704268900000000,45.6560974207,-73.9975121786,Mirabel,74005,,10466 montée CLEMENT,10466,,,,MO,,CLEMENT,,,,,665704268900000000,7412,,1010,2006-08-31,moral,landowner,1407.83,977130.20,1,1961,R,,,,,,1,2018-07-01,1188600,2932300,4120900,3945900,,2023-08-07
74005736304138200000000,45.7104913902,-73.9082611681,Mirabel,74005,,18575 18625 rue HUBERT AQUIN,18575,,18625,,RU,,HUBERT AQUIN,,,,,736304138200000000,7611,,0951,2011-03-08,moral,landowner,8.16,5179.30,1,2017,R,25.1,single-detached,,,,1,2018-07-01,187200,141600,328800,289200,,2023-08-07
66023953769948690000000,45.4813546357,-73.6168461008,Montréal,66023,REM34,4245 boulevard DECARIE,4245,,,,BO,,DECARIE,,,,,953769948690000000,6813,30-F43320715,3492,2001-08-10,moral,landowner,,155084.90,3,,,,,,,,1,2018-07-01,32567800,56750200,89318000,82728300,,2023-08-07
05065203975241100000000,48.1888476556,-65.6309069351,Saint-Alphonse,05065,,134 rue PRINCIPALE OUEST,134,,,,RU,,PRINCIPALE OUEST,,,,,203975241100000000,6812,,1000,1901-01-01,moral,landowner,99.99,11314.40,1,1960,R,1022.8,single-detached,,,,1,2018-07-01,40600,1029800,1070400,891810,,2023-08-07
87020208459098900000000,48.6032443544,-79.2869727046,Gallichan,87020,,chemin de Gallichan,,,,,CH,J,Gallichan,,,,,208459098900000000,7459,456,0020,2004-01-01,moral,landowner,,1964.20,1,,,17.9,single-detached,single-storey,,,,2017-07-01,7100,42000,49100,49100,,2023-08-07
87015118592030000000000,48.6053786908,-79.4038314425,Roquemaure,87015,,16 rue Raymond Est,16,,,,RU,,Raymond,E,,,,118592030000000000,6812,345,0045,2020-06-15,moral,landowner,71.02,6165.90,1,1956,R,786.8,single-detached,single-storey,,,1,2017-07-01,11600,364500,376100,376100,,2023-08-07
87010197941227100000000,48.5509858443,-79.3019598561,Rapide-Danseur,87010,,535 route du Village,535,,,,RO,N,Village,,,,,197941227100000000,7219,284,0130,1992-01-01,moral,landowner,66.04,6671.60,1,1950,R,207.6,single-detached,single-storey,,,1,2017-07-01,10300,95000,105300,105300,,2023-08-07
47047733265429300000000,45.4247795533,-72.6261696104,Roxton Pond,47047,,1780 boulevard DAVID-BOUCHARD,1780,,,,BO,,DAVID-BOUCHARD,,,,,733265429300000000,7611,90479,0806,2018-02-14,moral,landowner,,101000.00,,,,91.2,,,,,,2019-07-01,813300,,813300,686800,,2023-08-07
44060091568070100000000,45.2757304414,-71.7132635317,Martinville,44060,,194 rue de l' EGLISE,194,,,,RU,K,EGLISE,,,,,091568070100000000,6812,,1004,2020-06-15,moral,landowner,54.58,4425.50,1,1960,R,291.9,single-detached,,,,,2020-07-01,41700,509600,551300,468500,,2023-08-07
44060091509329200000000,45.2773701268,-71.7206527456,Martinville,44060,,rue PRINCIPALE Est,,,,,RU,,PRINCIPALE Est,,,,,091509329200000000,7611,,1001,1996-01-22,moral,landowner,41.55,2190.20,,,,,,,,,,2020-07-01,36800,0,36800,26200,,2023-08-07
44055110890386000000000,45.2064504238,-71.6821311980,Sainte-Edwidge-de-Clifton,44055,,1432 chemin FAVREAU,1432,,,,CH,,FAVREAU,,,,,110890386000000000,7433,,1001,1983-01-01,moral,landowner,6.68,6882.90,1,1950,R,81.9,single-detached,,,,,2017-07-01,31900,66300,98200,98200,,2023-08-07
44055110797208800000000,45.2039035265,-71.6823449240,Sainte-Edwidge-de-Clifton,44055,,1375 chemin FAVREAU,1375,,,,CH,,FAVREAU,,,,,110797208800000000,7219,,1001,1986-07-04,moral,landowner,40.62,8245.80,1,1964,R,446.5,single-detached,,,,,2017-07-01,32600,252600,285200,285200,,2023-08-07
44055110789463500000000,45.2052099170,-71.6830779583,Sainte-Edwidge-de-Clifton,44055,,1427 chemin FAVREAU,1427,,,,CH,,FAVREAU,,,,,110789463500000000,6812,,1001,2020-06-15,moral,landowner,103.68,7844.30,2,1960,R,813.6,single-detached,,,,1,2017-07-01,32400,664900,697300,697300,,2023-08-07
44010219575869300000000,45.0955220130,-71.5542605774,East Hereford,44010,,577 chemin de COATICOOK,577,,,,CH,J,COATICOOK,,,,,219575869300000000,7491,,1910,2017-06-01,moral,landowner,404.46,171064.70,1,2016,R,,,,,,1,2017-07-01,61000,75600,136600,136600,,2023-08-07
44010259397221000000000,45.0789629040,-71.5018752155,East Hereford,44010,,54 rue de l' EGLISE,54,,,,RU,K,EGLISE,,,,,259397221000000000,6812,,1000,2020-06-15,moral,landowner,61.56,4269.90,1,1955,R,292.6,single-detached,,,,1,2017-07-01,13300,369000,382300,382300,,2023-08-07
44010259396802700000000,45.0782241593,-71.5010301309,East Hereford,44010,,47 rue de l' EGLISE,47,,,,RU,K,EGLISE,,,,,259396802700000000,7422,,1000,1983-01-01,moral,landowner,221.77,15350.70,1,1990,R,73.5,single-detached,,,,,2017-07-01,19100,159900,179000,179000,,2023-08-07
77060388154767300000000,45.8699358046,-74.3528663414,Wentworth-Nord,77060,,chemin des MONTFORTAINS,,,,,CH,M,MONTFORTAINS,,,,,388154767300000000,7413,1174862,1305,2017-03-02,moral,landowner,80.61,7224.60,,,,,single-detached,,,,,2018-07-01,9100,9500,18600,17700,,2023-08-07
67050842477161500000000,45.3621327447,-73.7563703660,Châteauguay,67050,,80 rue FAUBERT,80,,,,RU,,FAUBERT,,,,,842477161500000000,7421,2844844,7603,1978-05-31,moral,landowner,49.88,6244.00,,1990,R,,single-detached,,,,,2020-07-01,186100,3200,189300,568400,,2023-08-07
69017849402637100000000,45.0880623554,-73.7633567461,Saint-Chrysostome,69017,,378 rang NOTRE-DAME,378,,,,RA,,NOTRE-DAME,,,,,849402637100000000,7311,662527,8517,1991-06-12,moral,landowner,175.26,16368.00,1,1930,R,562.4,single-detached,,,,1,2020-07-01,77200,382100,459300,446400,,2023-08-07
69017849238151600000000,45.0753068179,-73.7596686576,Saint-Chrysostome,69017,,256 258 rang NOTRE-DAME,256,,258,,RA,,NOTRE-DAME,,,,,849238151600000000,7491,663286,9522,2006-12-21,moral,landowner,91.57,148748.50,1,1980,E,132.3,single-detached,single-storey,1,,1,2020-07-01,143400,348800,492200,476900,,2023-08-07
69017839578400600000000,45.1018931123,-73.7676681224,Saint-Chrysostome,69017,,400 rang SAINT-ANTOINE,400,,,,RA,,SAINT-ANTOINE,,,,,839578400600000000,7239,663202,2102,1998-08-31,moral,landowner,89.34,20340.20,1,1980,R,678.5,single-detached,,,,1,2020-07-01,56100,487000,543100,535000,,2023-08-07
69017849566280000000000,45.1001106895,-73.7563849754,Saint-Chrysostome,69017,,25 rue MICHEL,25,,,,RU,,MICHEL,,,,,849566280000000000,7421,664384,7305,1975-01-01,moral,landowner,145.83,36101.20,1,1984,R,150.6,single-detached,,,,1,2020-07-01,85000,537500,622500,614600,,2023-08-07
69017849559736000000000,45.1033351856,-73.7570191494,Saint-Chrysostome,69017,,51 rue SAINT-PIERRE,51,,,,RU,,SAINT-PIERRE,,,,,849559736000000000,6813,664368,7005,1998-01-01,moral,landowner,86.38,9541.90,2,1952,R,2001.7,single-detached,,,,1,2020-07-01,166700,1721400,1888100,1874400,,2023-08-07
69017849547974800000000,45.1013185796,-73.7579060646,Saint-Chrysostome,69017,,57 rue WOOD,57,,,,RU,,WOOD,,,,,849547974800000000,6812,664580,7004,1998-01-01,moral,landowner,104.86,23643.70,2,1965,R,2713.0,single-detached,,,,1,2020-07-01,311100,1696800,2007900,1994000,,2023-08-07
69017849662442500000000,45.1057209479,-73.7561289346,Saint-Chrysostome,69017,,626 628 rang NOTRE-DAME,626,,628,,RA,,NOTRE-DAME,,,,,849662442500000000,7219,664848,5500,1991-09-06,moral,landowner,25.00,769.00,1,1930,R,315.9,semi-detached,,1,,2,2020-07-01,64500,193500,258000,243900,,2023-08-07
65005894674889150000000,45.5580914130,-73.6921543187,Laval,65005,,133 boulevard CARTIER Ouest,133,,,,BO,,CARTIER,O,,,,894674889150000000,6812,12840,5060,2001-01-01,moral,landowner,116.05,14543.50,1,1966,E,2444.3,single-detached,,,,1,2020-07-01,3209200,2862600,6071800,5435800,,2023-08-07
82020525265923200000000,45.6106494408,-75.8889447582,Cantley,82020,,915 chemin du MONT-DES-CASCADES,915,,,,CH,N,MONT-DES-CASCADES,,,,,525265923200000000,7412,27640,1110,2016-05-04,moral,landowner,,1021039.00,2,1929,R,428.9,single-detached,,,,1,2020-07-01,1001100,1942700,2943800,2717300,,2023-08-07
82020614560703500000000,45.5429331105,-75.7718304636,Cantley,82020,,rue NICOLE,,,,,RU,,NICOLE,,,,,614560703500000000,7611,,0136,2015-01-01,physical,tenant of tax-exempt building,34.91,1136.80,,2013,R,,,,,,,2020-07-01,49500,2100,51600,29400,,2023-08-07
82020614560665200000000,45.5429336814,-75.7713441059,Cantley,82020,,17 rue NICOLE,17,,,,RU,,NICOLE,,,,,614560665200000000,7611,33806,0136,2003-01-13,moral,landowner,6.85,811.60,,,,,,,,,,2020-07-01,11800,,11800,6500,,2023-08-07
82020624580723100000000,45.5427465782,-75.7563858132,Cantley,82020,,79 rue du MONT-JOEL,79,,,,RU,N,MONT-JOEL,,,,,624580723100000000,6812,375108,0134,2014-08-20,moral,landowner,298.26,26830.50,2,2014,R,3832.3,single-detached,,,,1,2020-07-01,185100,8507500,8692600,6860700,,2023-08-07
75017657092321700000000,45.7709911695,-73.9998541071,Saint-Jérôme,75017,,245 rue de SAINT-FAUSTIN,245,,,,RU,J,SAINT-FAUSTIN,,,,,657092321700000000,7423,,6506,2000-01-01,moral,landowner,65.84,21589.90,1,1966,R,193.7,single-detached,,,,1,2018-07-01,1525400,306300,1831700,1096700,,2023-08-07
76025466858075500000000,45.7571119653,-74.2493222434,Gore,76025,,chemin des BOISES,,,,,CH,M,BOISES,,,,,466858075500000000,7611,,7610,2017-06-13,moral,landowner,29.28,7911.10,,,,,,,,,,2015-07-01,100,0,100,100,,2023-08-07
75017637465654900000000,45.8091197433,-74.0256868681,Saint-Jérôme,75017,,boulevard du CURE-LABELLE,,,,,BO,N,CURE-LABELLE,,,,,637465654900000000,7611,,3046,2018-06-12,moral,landowner,173.68,38113.40,,,,,,,,,,2018-07-01,138700,0,138700,138700,,2023-08-07
73010785467247400000000,45.6324401314,-73.8358946786,Sainte-Thérèse,73010,,50 rue LEROUX,50,,,,RU,,LEROUX,,,,,785467247400000000,6812,,0302,2000-01-01,moral,landowner,195.50,17542.70,2,1961,R,,,,,,2,2018-07-01,1386300,3544000,4930300,4689100,,2023-08-07
70022751768501700000000,45.2997233250,-73.8717172070,Beauharnois,70022,,866 boulevard CADIEUX,866,,,,BO,,CADIEUX,,,,,751768501700000000,7451,,0450,2000-01-01,moral,landowner,12.06,45219.70,1,,,3055.6,single-detached,,,,1,2018-07-01,1026900,1702000,2728900,2519600,,2023-08-07
70022751759467200000000,45.3010808844,-73.8730252957,Beauharnois,70022,,864 boulevard CADIEUX,864,,,,BO,,CADIEUX,,,,,751759467200000000,7433,,0450,2017-12-14,moral,lessor,60.01,10676.00,1,,,,,,,,1,2018-07-01,888700,3101700,3990400,3723600,,2023-08-07
63060879351192500000000,45.9767236765,-73.7188614408,Sainte-Julienne,63060,,autoroute 25,,,,,AT,,25,,,,,879351192500000000,7491,,0742,2010-02-15,moral,lessor of public land,100.30,30220.00,,,,,,,,,,2020-07-01,133000,,133000,120900,,2023-08-07
63060879340577000000000,45.9764166562,-73.7240716664,Sainte-Julienne,63060,,autoroute 25,,,,,AT,,25,,,,,879340577000000000,7491,,0742,2010-02-15,moral,lessor of public land,89.54,33698.00,,,,,,,,,,2020-07-01,148300,,148300,134800,,2023-08-07
63060899887623200130000,46.0282307548,-73.6929571636,Sainte-Julienne,63060,,2905 montée HAMILTON LOT R 18 A 4,2905,,,,MO,,HAMILTON LOT R 18 A 4,,,,,899887623200130000,7491,,7491,2001-01-01,moral,trailer building owner,,,1,2000,R,32.4,single-detached,modular prefab,,,1,2020-07-01,,40200,40200,44300,,2023-08-07
63060899887623200120000,46.0282307548,-73.6929571636,Sainte-Julienne,63060,,2905 montée HAMILTON LOT R 18 A 3,2905,,,,MO,,HAMILTON LOT R 18 A 3,,,,,899887623200120000,7491,,7491,2003-05-01,moral,trailer building owner,,,1,2000,R,32.4,single-detached,modular prefab,,,1,2020-07-01,,40200,40200,44300,,2023-08-07
63060899887623200110000,46.0282307548,-73.6929571636,Sainte-Julienne,63060,,2905 montée HAMILTON LOT R 18 A 2,2905,,,,MO,,HAMILTON LOT R 18 A 2,,,,,899887623200110000,7491,,7491,2003-05-01,moral,trailer building owner,,,1,2000,R,32.4,single-detached,modular prefab,,,1,2020-07-01,,40600,40600,44300,,2023-08-07
63060899887623200100000,46.0282307548,-73.6929571636,Sainte-Julienne,63060,,2905 montée HAMILTON LOT R 18 A 1,2905,,,,MO,,HAMILTON LOT R 18 A 1,,,,,899887623200100000,7491,,7491,2001-01-01,moral,trailer building owner,,,1,2000,R,32.4,single-detached,modular prefab,,,1,2020-07-01,,40700,40700,44700,,2023-08-07
63060889009482700000000,45.9579667135,-73.7161207933,Sainte-Julienne,63060,,2385 rue du DOMAINE MALO,2385,,,,RU,N,DOMAINE MALO,,,,,889009482700000000,6812,,0358,2020-06-15,moral,landowner,9.27,15992.80,2,2017,R,3221.9,single-detached,,,,1,2020-07-01,863600,6622100,7485700,7079200,,2023-08-07
64015907072072500000000,45.7717454703,-73.6812110326,Mascouche,64015,,1515 rue des LAURENTIDES,1515,,,,RU,M,LAURENTIDES,,,,,907072072500000000,7422,,1102,2000-01-01,moral,landowner,103.10,11351.50,,1990,R,,,,,,,2020-07-01,118100,26300,144400,118700,,2023-08-07
11035992392223800000000,48.0410080078,-69.2242585144,Saint-Éloi,11035,,456 rue PRINCIPALE Est,456,,,,RU,,PRINCIPALE,E,,,,992392223800000000,7219,210644,1703,1986-10-22,moral,landowner,26.61,1954.70,1,1947,R,,,,,,3,2018-07-01,5900,161000,166900,149300,,2023-08-07
11035992390157600000000,48.0394931306,-69.2243718495,Saint-Éloi,11035,,319 rue PRINCIPALE Est,319,,,,RU,,PRINCIPALE,E,,,,992390157600000000,6812,210641,1702,1966-06-14,moral,landowner,32.31,3832.20,2,1962,R,,,,,,1,2018-07-01,9100,676300,685400,628100,,2023-08-07
11035992343647000000000,48.0422728654,-69.2304028508,Saint-Éloi,11035,,452 route de la STATION,452,,,,RO,L,STATION,,,,,992343647000000000,7419,180060,1705,1979-11-06,moral,landowner,121.92,8953.20,1,1995,R,124.8,single-detached,single-storey,,,1,2018-07-01,9900,75800,85700,85000,,2023-08-07
64008886451579600010000,45.7174617459,-73.7086159332,Terrebonne,64008,,2495 boulevard des ENTREPRISES,2495,,,,BO,M,ENTREPRISES,,,,,886451579600010000,7425,,0704,2008-01-01,moral,tenant of tax-exempt building,,,1,2008,R,1604.7,single-detached,,,,1,2018-07-01,260500,862700,1123200,1002000,,2023-08-07
64008826089220800070000,45.6877558889,-73.7818965360,Terrebonne,64008,,1115 rue ARMAND-BOMBARDIER,1115,,,,RU,,ARMAND-BOMBARDIER,,111,111,,826089220800070000,7425,,1804,2016-03-14,moral,condo owner,,570.00,1,2006,R,133.4,,,,,1,2018-07-01,62700,147200,209900,182000,,2023-08-07
08073900533506900000000,48.7866262820,-67.6965209628,Saint-Ulric,08073,,3070 avenue du Centenaire,3070,,,,AV,N,Centenaire,,,,,900533506900000000,7229,4581,2700,1981-05-05,moral,landowner,217.37,25274.70,1,2006,R,126.5,single-detached,single-storey,,,1,2020-07-01,137600,146100,283700,302600,,2023-08-07
08073890593463100000000,48.7862242475,-67.7021414295,Saint-Ulric,08073,,197 avenue Ulric-Tessier,197,,,,AV,,Ulric-Tessier,,,,,890593463100000000,6812,4460,2701,1999-01-01,moral,landowner,78.35,17428.20,1,1956,R,,,,,,1,2020-07-01,168200,1609000,1777200,1669500,,2023-08-07
66023025292939180000000,45.6105201304,-73.5231537864,Montréal,66023,REM22,3125 avenue FLETCHER,3125,,,,AV,,FLETCHER,,,,,025292939180000000,6812,30-F37638700,2754,2020-06-15,moral,landowner,146.30,5913.00,2,1965,R,5440.5,single-detached,,,,1,2018-07-01,2106500,6716900,8823400,8229100,,2023-08-07
08053081463163400000000,48.8673510326,-67.4479965501,Matane,08053,,688 chemin de la GRÈVE,688,,,,CH,L,GRÈVE,,,,,081463163400000000,7424,8053071,9700,2017-11-23,physical,landowner,45.42,3747.60,1,1962,R,910.2,single-detached,,,,1,2018-07-01,42500,61800,104300,96000,,2023-08-07
83032370471110400000000,46.0765603302,-76.0728696628,Gracefield,83032,,59 chemin du LAC-CAYAMANT,59,,,,CH,N,LAC-CAYAMANT,,,,,370471110400000000,7491,54971,0018,1995-03-08,physical,landowner,1016.14,26803.40,1,1970,E,115.7,single-detached,single-storey,,,1,2020-07-01,53000,110900,163900,133200,,2023-08-07
83032390510489900000000,46.0850758080,-76.0555330353,Gracefield,83032,,rue SAINT-JOSEPH,,,,,RU,,SAINT-JOSEPH,,,,,390510489900000000,7422,55767,5011,1972-04-05,moral,landowner,24.85,27761.70,,,,,,,,,,2020-07-01,79800,94700,174500,156400,,2023-08-07
83032390508872400000000,46.0914270095,-76.0566915112,Gracefield,83032,,11 chemin de BLUE SEA,11,,,,CH,J,BLUE SEA,,,,,390508872400000000,6815,55832,7000,1970-01-01,moral,landowner,179.06,39284.20,1,1960,R,6979.0,single-detached,,,,1,2020-07-01,199300,6001700,6201000,4950300,,2023-08-07
83032390781694700000000,46.1074066861,-76.0432059428,Gracefield,83032,,rue VAILLANCOURT,,,,,RU,,VAILLANCOURT,,,,,390781694700000000,7611,56269,5000,1999-01-01,moral,landowner,,536271.70,,,,,,,,,,2020-07-01,187700,6900,194600,181700,,2023-08-07
83032390146007500000000,46.0542958114,-76.0527539567,Gracefield,83032,,180 184 route 105,180,,184,,RO,,105,,,,,390146007500000000,7491,55712,3005,2012-09-13,moral,landowner,505.85,175439.80,1,1970,R,190.1,single-detached,single-storey,2,,1,2020-07-01,315800,460600,776400,761000,,2023-08-07
83032360524646900000000,46.0881793405,-76.0931603154,Gracefield,83032,,7 chemin de la TRAVERSE-BENARD,7,,,,CH,L,TRAVERSE-BENARD,,,,,360524646900000000,7491,54702,0020,2018-10-05,physical,landowner,274.09,15743.00,2,1960,E,54.0,single-detached,full-storey,1,,1,2020-07-01,41500,55500,97000,82500,,2023-08-07
91015065622130400000000,48.3359919445,-72.1318410376,Saint-François-de-Sales,91015,,290 292 rue du PARC,290,,292,,RU,N,PARC,,,,,065622130400000000,7491,,5000,2002-01-01,moral,landowner,,127896.90,1,,,,,,,,1,2018-07-01,81800,975700,1057500,854700,,2023-08-07
66023046182485300000000,45.6911818417,-73.4993881166,Montréal,66023,REM33,avenue 82E,,,,,AV,,82E,,,,,046182485300000000,7611,30-F80437302,4251,2016-07-07,moral,landowner,10.34,558.40,,,,,,,,,,2018-07-01,41900,,41900,33500,,2023-08-07
76020385559940400000000,45.6398681075,-74.3492713651,Lachute,76020,,450 avenue d' ARGENTEUIL,450,,,,AV,H,ARGENTEUIL,,,,,385559940400000000,7432,,1300,2016-02-10,moral,landowner,53.08,1779.30,1,1979,R,1324.0,,,,,1,2020-07-01,53400,5769900,5823300,4599500,,2023-08-07
66023046182521770000000,45.6908562330,-73.4993303686,Montréal,66023,REM33,avenue 81E,,,,,AV,,81E,,,,,046182521770000000,7611,30-F80434601,4251,2016-07-07,moral,landowner,15.24,396.10,,,,,,,,,,2018-07-01,29700,,29700,23800,,2023-08-07
66023046182610530000000,45.6907405550,-73.4992049202,Montréal,66023,REM33,avenue 81E,,,,,AV,,81E,,,,,046182610530000000,7611,30-F80434600,4251,2016-07-07,moral,landowner,7.93,48.70,,,,,,,,,,2018-07-01,3700,,3700,2900,,2023-08-07
62075033043113000000000,46.3126501644,-73.5180506233,Saint-Damien,62075,,3450 chemin du LAC-CORBEAU,3450,,,,CH,N,LAC-CORBEAU,,,,,033043113000000000,7219,,0258,1967-12-13,moral,landowner,52.26,2737.10,1,1961,R,225.0,single-detached,single-storey,,,1,2019-07-01,21400,59600,81000,69700,,2023-08-07
62075063256058700000000,46.3338934006,-73.4778534465,Saint-Damien,62075,,6916 chemin ROBITAILLE,6916,,,,CH,,ROBITAILLE,,,,,063256058700000000,7219,,4044,1981-08-09,moral,landowner,36.04,2129.10,1,1978,E,155.5,single-detached,single-storey,,,1,2019-07-01,9100,101500,110600,101900,,2023-08-07
62075063239854900000000,46.3362577316,-73.4794145467,Saint-Damien,62075,,6863 6867 chemin MONTAUBAN,6863,,6867,,CH,,MONTAUBAN,,,,,063239854900000000,7424,,4031,1995-08-23,moral,landowner,131.13,30802.10,1,,,,,,,,3,2019-07-01,71400,410300,481700,436100,,2023-08-07
05065203953917500000000,48.1871122695,-65.6327477260,Saint-Alphonse,05065,,140 rue PRINCIPALE OUEST,140,,,,RU,,PRINCIPALE OUEST,,,,,203953917500000000,7219,,1000,1901-01-01,moral,landowner,21.93,31016.90,1,1978,R,448.7,single-detached,,,,1,2018-07-01,41300,389500,430800,436540,,2023-08-07
05055242695333400000000,48.0726259752,-65.5719271697,Saint-Siméon,05055,,115 avenue de l' EGLISE,115,,,,AV,K,EGLISE,,,,,242695333400000000,6812,,1005,1901-01-01,moral,landowner,194.75,8292.50,2,,,,,,,,1,2020-07-01,80800,926200,1007000,963200,,2023-08-07
83015429031793900000000,45.9499171102,-76.0152561214,Kazabazua,83015,,9 chemin BEGLEY,9,,,,CH,,BEGLEY,,,,,429031793900000000,6812,43979,5006,1997-08-27,moral,landowner,212.40,22541.90,1,1997,R,1172.8,single-detached,,,,1,2020-07-01,28500,1640300,1668800,435200,,2023-08-07
83015328718443100000000,45.9299428494,-76.1460662936,Kazabazua,83015,,712 route 301,712,,,,RO,,301,,,,,328718443100000000,7414,41752,3001,1978-01-03,physical,landowner,,303998.70,1,2010,E,55.5,single-detached,single-storey,,,1,2020-07-01,36500,5100,41600,38000,,2023-08-07
49030017515973500000000,45.8129403537,-72.2596311680,Saint-Lucien,49030,,5 rue THIERRY,5,,,,RU,,THIERRY,,,,,017515973500000000,7491,201182,0801,1997-01-31,moral,landowner,359.79,40497.50,1,1975,R,538.9,single-detached,,,,1,2019-07-01,92800,176000,268800,236400,,2023-08-07
61050041015124800000000,46.1347090741,-73.5088971211,Sainte-Mélanie,61050,,100 rue des ORMES,100,,,,RU,M,ORMES,,,,,041015124800000000,7219,439811,1301,1984-07-09,moral,landowner,30.48,929.00,1,1985,R,197.2,single-detached,,,,1,2020-07-01,43400,111100,154500,137600,,2023-08-07
46078711976177900000000,45.3138006558,-72.6464332267,Bromont,46078,,rue de SHERBROOKE,,,,,RU,J,SHERBROOKE,,,,,711976177900000000,7611,,9999,2020-05-06,physical,landowner,5.10,7446.20,,,,,,,,,,2018-07-01,100,0,100,100,,2023-08-07
45115052482064300000000,45.3499925892,-72.2177331888,Orford,45115,,3321 chemin du PARC,3321,,,,CH,N,PARC,,,,,052482064300000000,7611,,1700,1981-09-01,moral,landowner,3692.34,50530274.70,1,,,,,,,,1,2020-07-01,26900300,1428100,28328400,27101000,,2023-08-07
45115032585782900000000,45.3627018228,-72.2352803524,Orford,45115,,3321 A chemin du PARC,3321,A,,,CH,N,PARC,,,,,032585782900000000,7493,,4015,2016-07-06,moral,landowner,,56000.00,1,,,,,,,,1,2020-07-01,1300000,3970000,5270000,4942900,,2023-08-07
78032440185878600000000,46.0514384698,-74.2742355969,Sainte-Agathe-des-Monts,78032,,40 rue BRISSETTE,40,,,,RU,,BRISSETTE,,,,,440185878600000000,7222,328531,1003,1983-01-01,moral,landowner,115.96,14191.00,1,1972,R,4861.3,single-detached,,,,2,2020-07-01,340900,6696800,7037700,6799400,,2023-08-07
78032440180484600000000,46.0465843376,-74.2746688418,Sainte-Agathe-des-Monts,78032,,rue SYLVAIN,,,,,RU,,SYLVAIN,,,,,440180484600000000,7611,326994,2202,1990-06-05,moral,landowner,91.63,6359.70,,,,,,,,,,2020-07-01,103300,0,103300,177500,,2023-08-07
78032460183373800000000,46.0494075854,-74.2490241277,Sainte-Agathe-des-Monts,78032,,chemin du MONT-CATHERINE,,,,,CH,N,MONT-CATHERINE,,,,,460183373800000000,7611,355138,2005,2011-12-15,moral,landowner,69.64,7929.90,,,,,,,,,,2020-07-01,100,0,100,100,,2023-08-07
45115112491248100000000,45.3492573956,-72.1326799867,Orford,45115,,53 89 rue des CERFS,53,,89,,RU,M,CERFS,,,,,112491248100000000,7492,,3008,2003-09-23,physical,landowner,199.75,63883.50,1,,,112.6,single-detached,attic,1,,1,2020-07-01,221400,254700,476100,426200,,2023-08-07
78032460027433200000000,46.0438843573,-74.2566020100,Sainte-Agathe-des-Monts,78032,,rue de FORT-CHEVEL,,,,,RU,J,FORT-CHEVEL,,,,,460027433200000000,7413,348484,2214,2008-02-22,moral,landowner,20.71,947.00,,,,,,,,,,2020-07-01,11400,11200,22600,25600,,2023-08-07
45115072087208600000000,45.3191556438,-72.1879119399,Orford,45115,,3074 chemin du PARC,3074,,,,CH,N,PARC,,,,,072087208600000000,7412,,6500,2011-05-31,moral,landowner,1540.99,806023.30,1,1950,R,650.5,single-detached,,,,1,2020-07-01,1212000,1345100,2557100,3661900,,2023-08-07
78032440115271300000000,46.0508715178,-74.2840631164,Sainte-Agathe-des-Monts,78032,,99 rue SAINTE-AGATHE,99,,,,RU,,SAINTE-AGATHE,,,,,440115271300000000,6813,327114,1504,1983-01-01,moral,landowner,191.21,13370.80,3,1960,R,3704.4,single-detached,,,,1,2020-07-01,903800,4223000,5126800,4851300,,2023-08-07
78032430186738600000000,46.0523008954,-74.2874509516,Sainte-Agathe-des-Monts,78032,,rue SAINT-ANTOINE,,,,,RU,,SAINT-ANTOINE,,,,,430186738600000000,7421,324541,1132,1983-01-01,moral,landowner,61.31,2551.70,,,,,,,,,,2020-07-01,116300,0,116300,116200,,2023-08-07
78032430192052000000000,46.0480712550,-74.2868772442,Sainte-Agathe-des-Monts,78032,,13 rue SAINT-ANTOINE,13,,,,RU,,SAINT-ANTOINE,,,,,430192052000000000,6812,324450,1132,1983-01-01,moral,landowner,53.43,3983.70,4,1910,R,2723.8,single-detached,,,,1,2020-07-01,152100,3057500,3209600,3010800,,2023-08-07
78032440144138000000000,46.0504436249,-74.2803570206,Sainte-Agathe-des-Monts,78032,,76 rue DEMONTIGNY,76,,,,RU,,DEMONTIGNY,,,,,440144138000000000,7425,323774,1003,2006-07-12,moral,landowner,53.37,2188.40,1,1970,R,476.2,single-detached,,,,1,2020-07-01,93700,238000,331700,334400,,2023-08-07
78032440149386000000000,46.0547814985,-74.2800854497,Sainte-Agathe-des-Monts,78032,,118 rue DEMONTIGNY,118,,,,RU,,DEMONTIGNY,,,,,440149386000000000,6812,330683,1002,2016-06-30,moral,landowner,51.82,5180.60,1,1959,R,792.8,single-detached,,,,1,2020-07-01,284300,1441600,1725900,1589700,,2023-08-07
78032430147725800000000,46.0529549383,-74.2925385515,Sainte-Agathe-des-Monts,78032,,26 rue NAPOLEON,26,,,,RU,,NAPOLEON,,,,,430147725800000000,6813,324108,1132,1999-12-23,moral,landowner,11.14,26815.70,2,1950,R,2987.2,single-detached,,,,1,2020-07-01,499700,4302700,4802400,4598400,,2023-08-07
78032440100867900000000,46.0468104906,-74.2845145030,Sainte-Agathe-des-Monts,78032,,80 82 rue PRINCIPALE EST,80,,82,,RU,,PRINCIPALE EST,,,,,440100867900000000,7425,321338,1503,2014-11-14,moral,landowner,21.95,1095.30,2,1900,R,1014.6,single-detached,,2,,2,2020-07-01,132700,851900,984600,954400,,2023-08-07
78032430162752800000000,46.0482062730,-74.2898938273,Sainte-Agathe-des-Monts,78032,,21 31 rue PRINCIPALE OUEST,21,,31,,RU,,PRINCIPALE OUEST,,,,,430162752800000000,7239,329855,1101,1983-01-01,moral,landowner,114.34,14395.20,1,,,,,,,,1,2020-07-01,1751800,1413100,3164900,3013800,,2023-08-07
77065339260855900000000,45.9646355483,-74.4175811561,Saint-Adolphe-d'Howard,77065,,196 chemin du VAL-DES-BOIS,196,,,,CH,N,VAL-DES-BOIS,,,,,339260855900000000,7431,643342,9999,2006-05-05,moral,other,182.11,8263.20,,,,,,,,,,2018-07-01,0,2600,2600,3000,,2023-08-07
69005838597272300000000,45.0104427084,-73.7647865717,Havelock,69005,,470 chemin COVEY HILL,470,,,,CH,,COVEY HILL,,,,,838597272300000000,7491,408009,9520,1978-11-20,moral,landowner,490.29,842279.70,2,1985,,54.4,single-detached,,,,,2020-07-01,572500,869300,1441800,1431400,,2023-08-07
69005819084307100000000,45.0544171734,-73.7916187072,Havelock,69005,,330 rang SAINT-CHARLES,330,,,,RA,,SAINT-CHARLES,,,,,819084307100000000,7491,407911,8504,2014-05-26,moral,landowner,50.91,165784.10,1,,,25.7,single-detached,,1,,1,2020-07-01,199900,333800,533700,520800,,2023-08-07
67050852415820400000000,45.3602110547,-73.7504149090,Châteauguay,67050,,66 68 rue PRINCIPALE,66,,68,,RU,,PRINCIPALE,,,,,852415820400000000,6813,2848928,7005,1998-04-11,moral,landowner,152.01,10237.70,1,1952,R,,,,,,1,2020-07-01,1238200,2913000,4151200,4267100,,2023-08-07
67050842571214500000000,45.3659705574,-73.7564791282,Châteauguay,67050,,85 boulevard D'YOUVILLE,85,,,,BO,,D'YOUVILLE,,,,,842571214500000000,7423,2844937,7304,1972-01-24,moral,landowner,145.63,21573.10,1,1976,R,62.1,single-detached,,,,1,2020-07-01,569300,68600,637900,3341700,,2023-08-07
67050842405270700000000,45.3602610933,-73.7650133172,Châteauguay,67050,,160 rue LAMARTINE,160,,,,RU,,LAMARTINE,,,,,842405270700000000,7422,2843523,7603,1971-08-18,moral,landowner,404.19,43391.50,1,1972,R,42.8,single-detached,,,,1,2020-07-01,1114800,53300,1168100,2859700,,2023-08-07
68010978995657500000000,45.0460912876,-73.5867267493,Hemmingford,68010,,517 avenue CHAMPLAIN,517,,,,AV,,CHAMPLAIN,,,,,978995657500000000,7239,1170523,7102,2016-06-21,moral,landowner,15.04,1405.90,1,1960,R,255.0,single-detached,,,,,2018-07-01,81200,54100,135300,129500,,2023-08-07
67050842498607000000000,45.3625413714,-73.7522618772,Châteauguay,67050,,84 boulevard D'YOUVILLE,84,,,,BO,,D'YOUVILLE,,,,,842498607000000000,7421,2845081,7304,1991-08-19,moral,landowner,1493.75,12100.20,,1990,R,,single-detached,,,,,2020-07-01,332500,33800,366300,516000,,2023-08-07
61030110215411300000000,46.0637247983,-73.4180505134,Notre-Dame-des-Prairies,61030,,591 route 131,591,,,,RO,,131,,,,,110215411300000000,7419,447158,5101,2014-08-14,physical,landowner,54.71,100103.70,,,,,,,,,1,2018-07-01,1836300,5000,1841300,1395700,,2023-08-07
59035257873366700000000,45.8448419676,-73.2304466736,Contrecoeur,59035,,rue JOSEPH-LAMOUREUX,,,,,RU,,JOSEPH-LAMOUREUX,,,,,257873366700000000,7611,12798,9572,2010-06-23,moral,landowner,,4402.70,,,,,,,,,,2020-07-01,,,0,100,,2023-08-07
65005784709219470000000,45.5713489163,-73.8430590345,Laval,65005,,4185 rue SEGUIN,4185,,,,RU,,SEGUIN,,,,,784709219470000000,6812,12563,2310,2000-12-05,moral,landowner,83.71,4507.40,2,1968,E,2706.6,single-detached,,,,1,2020-07-01,793300,2421400,3214700,2914600,,2023-08-07
59010184712612000000000,45.5646935013,-73.3289424239,Sainte-Julie,59010,,27 rue du PLATEAU,27,,,,RU,N,PLATEAU,,,,,184712612000000000,6812,,7008,2020-06-15,moral,landowner,112.59,16567.50,2,1984,R,3464.8,single-detached,,,,1,2020-07-01,2070900,3882300,5953200,5375500,,2023-08-07
59010165072038400000000,45.5923608065,-73.3474412330,Sainte-Julie,59010,,1800 rue SAVARIA,1800,,,,RU,,SAVARIA,,,,,165072038400000000,6812,,7007,2020-06-15,moral,landowner,118.21,13840.30,1,,,,,,,,1,2020-07-01,1730000,4586700,6316700,5737500,,2023-08-07
59010164980072100000000,45.5809716636,-73.3459412947,Sainte-Julie,59010,,2020 rue BORDUAS,2020,,,,RU,,BORDUAS,,,,,164980072100000000,6813,,7006,2020-06-15,moral,landowner,233.14,27871.00,2,1994,R,9124.6,single-detached,,,,1,2020-07-01,3483900,13445600,16929500,16076400,,2023-08-07
62037810231733700000000,46.0586354525,-73.8027698917,Rawdon,62037,,rue SUZOR-COTE,,,,,RU,,SUZOR-COTE,,,,,810231733700000000,7611,,4550,2006-11-17,moral,landowner,59.65,7488.30,,,,,,,,,,2019-07-01,,,0,100,,2023-08-07
